ObjectID,GlobalID,Date,DateYMD,Coordinate Source,Accuracy,Accuracy of GPS Unit,GPS Datum,Latitude,Longitude,Elevation,Unit,Ranger District,Org_Code,Forest Name,Area Within District,Land owner,Location Details,CreationDate,Creator,EditDate,Editor,x,y
3,e6026c39-2892-4309-9d0b-4df962c4d25e,########,20240528,GPS,GPS,Within 5m,WGS84,40.73206,-105.602,8565,feet,21005,21005,Arapaho and Roosevelt National Forests,FR171 off the N side,USFS,From Red Feather Lakes take 74 e west. Turn south onto CR69 until FR171. Turn W onto 171. Take 171 for about 600ft. Then park on the south side of road. Site is on the North side of road ~450 ft. ,########,cnhp_guest4,########,cnhp_guest4,-105.602,40.73206
4,1da1a375-6df8-42fe-9841-3bc8f9f9e234,########,20240528,GPS,GPS,Within 5m,WGS84,40.68287,-105.493,7269,feet,21005,21005,Arapaho and Roosevelt National Forests,Kelly Flats Campground,USFS,"From Laporte, take Colorado highway 14 west. Turn south onto CR 63E and travel .5 mi to Kelly Flats Campground. Site is on the W side of the road.",########,cnhp_guest4,########,cnhp_guest4,-105.493,40.68287
5,376badec-6402-4f6d-a6fb-114965ad6564,########,20240529,GPS,GPS,Within 5m,WGS84,40.72904,-105.638,9069,feet,21005,21005,Arapaho and Roosevelt National Forests,End of 171H,USFS,"Starting from Red Feather Lakes, take 74e west and turn south onto CR69. Take until FR171. Turn SW onto 171H and park at the beginning of the road. Walk up the road to collect graminoids. ERCO4 is at the end of the road. ",########,cnhp_guest4,########,cnhp_guest4,-105.638,40.72904
6,47d45c8c-30fb-4c97-baa7-3e05967f7eee,########,20240529,GPS,GPS,Within 5m,WGS84,40.69597,-105.312,5796,feet,21005,21005,Arapaho and Roosevelt National Forests,Hulett gulch,USFS,From la port take 287 north to co highway 14. turn north onto hulett gullch trailhead rd. park iin lot. site abbout 2000 ft from traailhead.,########,cnhp_guest4,########,ac15_CSUesri,-105.312,40.69597
7,b7a787c3-5e5f-4e59-bd1d-7c79cae5b575,########,20240529,GPS,GPS,Within 5m,WGS84,40.68624,-105.348,5911,feet,21005,21005,Arapaho and Roosevelt National Forests,Young gulch trailhead,USFS,Fromm laa  pporrtt ttaake higghhway 22887  norrth.. turnn  weestt   oonntoo  co  higgghwwwaayy 14. turn south at young gulch th. abouth 800 ft from th.,########,cnhp_guest4,########,ac15_CSUesri,-105.348,40.68624
8,0063f761-111e-4d44-ae21-8c4b5967c5eb,########,20240601,GPS,GPS,Within 5m,WGS84,40.12821,-105.839,8390,feet,21008,21008,Arapaho and Roosevelt National Forests,Doe creek trail,USFS,"From granby, head north on us40 for 4.9 miles. then turn east on us34 E. in 5.4 miles, turn south onto CO hwy6. Continue for aabout 5 miles and park at doe creek th. hike up doe creek trail .3 miles to clearing, just before trail junction.",########,cnhp_guest4,########,cnhp_guest4,-105.839,40.12821
9,2903c304-eab0-4651-9f1d-39b27e01a999,########,20240528,GPS,GPS,Within 5m,WGS84,40.69778,-105.521,6901,feet,21005,21005,Arapaho and Roosevelt National Forests,Mile marker 94,USFS,"From kelly flats campground, head west on highway 14 for 2.5 miles and park on north side of road in parking lot. Take trail until it meets the river and go east 1000 ft.",########,cnhp_guest4,########,cnhp_guest4,-105.521,40.69778
10,252af49b-e841-4885-9b75-cc60c6c9f17a,########,20240530,GPS,GPS,Within 5m,WGS84,40.71127,-105.412,7269,feet,21005,21005,Arapaho and Roosevelt National Forests,Fr339.1 closer to gate,USFS,"From la port take highway 287 north turn west onto 74 E then south onto cr 196, turn se onto fr 3991. Site is on the north facing slope once opening gate.",########,cnhp_guest4,########,cnhp_guest4,-105.412,40.71127
11,cbe837df-cb68-46d8-96fa-c65364234d8b,########,20240530,GPS,GPS,Within 5m,WGS84,40.74556,-105.548,7890,feet,21005,21005,Arapaho and Roosevelt National Forests,Elkhorn Creek Trail,USFS,"From Laporte, take highway 287n turn west onto 74e. Thrn SW onto 68C. Park in elkhorn creek trail parkinglot. Go about 2000ft. On south slope. Look for burn pile.",########,cnhp_guest4,########,cnhp_guest4,-105.548,40.74556
12,3d07edb4-3678-4f8e-9429-94fcc8a0d61d,########,20240601,GPS,GPS,Within 5m,WGS84,40.1449,-105.879,8197,feet,21008,21008,Arapaho and Roosevelt National Forests,Near sunset point,USFS,"From Granby, head north on US-40 for 0.9 miles. Turn right onto US-34 E. In 5.4 miles, turn right onto CO Hwy 6. In 0.8 miles, your destination will be on the right. Park on the dirt road at the No Motor Vehicle sign. From there, walk down the road a short ways. The E. Trachycaukus will fringe thenmarshy area. E. Umbellatum will be on the drier, south-facing slopes below the highway.",########,cnhp_guest4,########,cnhp_guest4,-105.879,40.1449
13,b81808d7-e39f-4548-a1eb-1ccf384d2e52,########,20240601,GPS,GPS,Within 5m,WGS84,40.22632,-105.891,8810,feet,21008,21008,Arapaho and Roosevelt National Forests,North of Idle Glen TH,USFS,From Granby head north on highway 34 for about 10 miles. Turn west onto CR4.  Continue onto FR123. Park at the fork of FR123 and the trailhead. Site is 100 ft from the road to the NE.,########,cnhp_guest4,########,cnhp_guest4,-105.891,40.22632
14,ec55800f-a532-4574-8cfd-ea8edebb38d9,########,20240602,GPS,GPS,Within 5m,WGS84,40.18435,-105.855,8256,feet,21008,21008,Arapaho and Roosevelt National Forests,Green Ridgeonnorthern most corner of lake Granby,USFS,"From Granby head nw on hwy 34, turn south on cr64. Site is 1.2 miles down the road on the east slope",########,cnhp_guest4,########,cnhp_guest4,-105.855,40.18435
15,7121f07e-a900-4b8d-ac0b-504cd72886b6,########,20240602,GPS,GPS,Within 5m,WGS84,40.34123,-106.091,9273,feet,21008,21008,Arapaho and Roosevelt National Forests,Granite mountain area,USFS,"From Granby, turn north onto co hwy 125, then stop about 2500 ft before fr266.1. Site is on the sw slopedirectly across from the 2 on the MVUM map.",########,cnhp_guest4,########,cnhp_guest4,-106.091,40.34123
16,a15c11d2-db37-4634-80e5-4d53e82e35cc,########,20240602,GPS,GPS,Within 5m,WGS84,40.31359,-106.068,8842,feet,21008,21008,Arapaho and Roosevelt National Forests,Granite mountain co hwy 125,USFS,"From Granby, head NW on co hwy 125. Look for 2-track road to the west lessthan a mile after the intersection of 125 and CR4. Site is in the open meadow above the wetland south of the two-track.",########,cnhp_guest4,########,cnhp_guest4,-106.068,40.31359
17,9a64ad38-c3be-4b3e-864b-8e8cc6abd0d0,########,20240602,GPS,GPS,Within 5m,WGS84,40.27883,-106.087,8690,feet,21008,21008,Arapaho and Roosevelt National Forests,"Across from trail creek campground, 1000 ft south",USFS,"From granby take highway 125 north approximately 13 miles. Site on west side of road, 1000 ft before picnic campground.",########,cnhp_guest4,########,cnhp_guest4,-106.087,40.27883
18,e0c8965e-c789-4ef7-a1cd-816a09d2bf13,########,20240603,GPS,GPS,Within 5m,WGS84,40.16349,-105.908,8579,feet,21008,21008,Arapaho and Roosevelt National Forests,Table mountain,USFS,"From Granby, head west on CR 4064 off of hwy 34. In about 0.1miles, turn south onto a faint two track that soon meets up with a larger two track. Turn right (west) onto this road. Site will be about 1 mile up the road, north of the road on the ssw slope of Table Mountain. We parked about 0.3 miles below and walked up the road due to a fallen tree across the road.",########,cnhp_guest4,########,cnhp_guest4,-105.908,40.16349
19,6ed23d81-e82a-4842-b757-33bdfa0d4d0b,########,20240603,GPS,GPS,Within 5m,WGS84,39.88847,-105.493,8941,feet,21001,21001,Arapaho and Roosevelt National Forests,Gilpin Road,USFS,"From Nederland, head south on hwy 119. Turn west onto CR 13(Gilpin rd). Travel 0.75 mi, site is on the right, associated with aspen.",########,cnhp_guest4,########,cnhp_guest4,-105.493,39.88847
20,b1eb0280-b03e-4d91-aae4-7f32ec14c2d7,########,20240528,GPS,GPS,Within 5m,WGS84,40.69597,-105.525,6923,feet,21005,21005,Arapaho and Roosevelt National Forests,"Northeast of CO Highway 14 closer to road, above the floodplane.",USFS,"From La Porte, take N Overland trail north. Turn west onto CO highway 14. Travel abou 21 mi,es and site will be on NE side of road.",########,ac15_CSUesri,########,cnhp_guest4,-105.525,40.69597
21,1efa9ebe-df6c-4683-b4af-92494ba9533b,########,20240528,GPS,GPS,Within 5m,WGS84,40.6367,-105.525,8151,feet,21005,21005,Arapaho and Roosevelt National Forests,Jacks gultch campground,USFS,"From Laportetake co hwy 14 west to 63E, turnsouth. travel for approx. 4 mi then turninto campground on SW side of road.",########,ac15_CSUesri,########,ac15_CSUesri,-105.525,40.6367
22,6c8a0c25-c17a-4ea2-87a0-5fbcb55fc2ec,########,20240529,GPS,GPS,Within 5m,WGS84,40.70034,-105.315,5772,feet,21005,21005,Arapaho and Roosevelt National Forests,"Hewlett gultch, 4,000ft in",USFS,From Laporte take hwy 287 to CO hwy 14 W. Turn north onto Hewlett gultch TH and park in lot. Site is approx. 4000ft from TH,########,ac15_CSUesri,########,ac15_CSUesri,-105.315,40.70034
23,ec3b1f9b-1573-467c-92ac-ca855bfaae0e,########,20240529,GPS,GPS,Within 5m,WGS84,40.57927,-105.464,8180,feet,21005,21005,Arapaho and Roosevelt National Forests,Buckhorn ranger station,USFS,"From Laporte take hwy 287 north to CO hwy 14 west. turn south onto Stove prairie road, then west onto Buckhorn/ 44H. Travel 8 mi to site, approx. 0.1mi before Buckhorn ranger station",########,ac15_CSUesri,########,ac15_CSUesri,-105.464,40.57927
24,8429678c-9795-42a3-961f-bfcd5ac321d4,########,20240530,GPS,GPS,Within 5m,WGS84,40.71392,-105.399,7220,feet,21005,21005,Arapaho and Roosevelt National Forests,FR 339.1 first stop,USFS,"From Laporte take hwy 287 N to CR 74E W. Turn S onto CR 196 then SE onto FR 339.1. Travel approx. 4,000 ft plants growing on west slope.",########,ac15_CSUesri,########,ac15_CSUesri,-105.399,40.71392
25,4bea4076-e5c9-4008-b52c-3f338584309e,########,20240530,GPS,GPS,Within 5m,WGS84,40.7147,-105.392,7241,feet,21005,21005,Arapaho and Roosevelt National Forests,FR 339.1 second stop,USFS,From Laporte take hwy 287 N to 74E W. Take until CR 196 then go south and turn SE onto 339.1 and take for approx. 1 mi. Site is on SE facing slope.,########,ac15_CSUesri,########,ac15_CSUesri,-105.392,40.7147
26,6f1c251f-01b4-4c84-b75a-9865ed66c46f,########,20240530,GPS,GPS,Within 5m,WGS84,40.74659,-105.541,7786,feet,21005,21005,Arapaho and Roosevelt National Forests,Elkhorn creek trail 1,USFS,From Laporte take hwy 287 N and turn W onto 74e. Turn SW onto 68C and park at Elkhorn TH. Site is on north slope 740ft ftom Elkhorn creek TH.,########,ac15_CSUesri,########,ac15_CSUesri,-105.541,40.74659
27,077a379b-131d-46cb-be5a-8675f1957985,########,20240530,GPS,GPS,Within 10m,WGS84,40.73378,-105.634,9045,feet,21005,21005,Arapaho and Roosevelt National Forests,FR 171 site 2,USFS,"From Laporte take hwy 287 N to 74E, then turn S onto CR 69. Turn onto FR 171 and take for 2 mi, plants growing S of road",########,ac15_CSUesri,########,ac15_CSUesri,-105.634,40.73378
28,fb75f462-5563-47fc-b14b-d2972ac1d8f4,########,20240531,GPS,GPS,Within 5m,WGS84,40.30881,-106.062,8782,feet,21008,21008,Arapaho and Roosevelt National Forests,near the junction of Highway 125 and CO Highway 4,USFS,"From Granby head north on 125. After about 16 miles, turn right onto CO Hwy 4. Park at trailhead map. Walk 50 feet to the bridge, then follow the creek 0.1 miles",########,ac15_CSUesri,########,ac15_CSUesri,-106.062,40.30881
29,9a1f1cbd-3b8c-4847-9554-38c2ee59ddd7,########,20240531,GPS,GPS,Within 5m,WGS84,40.25757,-106.111,8789,feet,21008,21008,Arapaho and Roosevelt National Forests,Bill Miller trail,USFS,"From Granby, head north on 125 for between 11 and 12 miles. Turn west onto FR 108.1. Watch for signs for Buffalo Creek. Continue on FR 108.1 for about 3.5 miles, where you'll reach the Bill Miller trailhead at the split in the road. Walk up the Bill Miller trail for about 0.15 miles. PEST will be on the south-facing slope left of the trail. ERUM will be all along the trail on both north- and south-facing aspects.",########,ac15_CSUesri,########,ac15_CSUesri,-106.111,40.25757
30,a93b1301-21a2-4e4a-94f7-5b84fa18ad6e,########,20240601,GPS,GPS,Within 5m,WGS84,40.12542,-105.776,8220,feet,21008,21008,Arapaho and Roosevelt National Forests,Strawberry lake trail,USFS,"From Granby go NE on hwy 34, then turn east onto CR 6. Trail is about 5.5 miles down road on the S side.",########,ac15_CSUesri,########,ac15_CSUesri,-105.776,40.12542
31,7d68ef2b-0c5b-45e5-b0f2-a46b5d40e655,########,20240601,GPS,GPS,Within 5m,WGS84,40.13354,-105.82,8323,feet,21008,21008,Arapaho and Roosevelt National Forests,N side of CR 6,USFS,"From Granby go NE on hwy 34, then turn east onto CR 6. Site is 4 miles down road on the N side.",########,ac15_CSUesri,########,ac15_CSUesri,-105.82,40.13354
32,6cdac54a-b29e-4fa5-ba2a-db730abdbb4c,########,20240601,GPS,GPS,Within 10m,WGS84,40.13363,-105.82,8350,feet,21008,21008,Arapaho and Roosevelt National Forests,S side of CR 6,USFS,"From Granby go NE on hwy 34, then turn east onto CR 6. Site is 4 miles down road on the N side.",########,ac15_CSUesri,########,ac15_CSUesri,-105.82,40.13363
33,04e6a930-cc3c-4397-813f-e4f2f330cacf,########,20240601,GPS,GPS,Within 10m,WGS84,40.21647,-105.885,8648,feet,21008,21008,Arapaho and Roosevelt National Forests,NW of  fork between FR 123 and 833.1,USFS,"From Granby head N on hwy 34 for about 10 mi, turn W on CR 4 contue onto FR 123 park at fork with 833.1. Site is NW.",########,ac15_CSUesri,########,ac15_CSUesri,-105.885,40.21647
34,3ecf9d2e-22c4-43ea-bc56-dc652d3f51ec,########,20240602,GPS,GPS,Within 10m,WGS84,40.20459,-105.841,8326,feet,21008,21008,Arapaho and Roosevelt National Forests,Green Ridge campground,USFS,"2From Granby go NW on hwy 34, then E on FR 274. Negative site is approx. 1 mi down road on S side. ",########,ac15_CSUesri,########,ac15_CSUesri,-105.841,40.20459
35,ef9c1583-241b-43e1-bc0f-83d759a15b68,########,20240602,GPS,GPS,Within 5m,WGS84,40.34614,-106.097,9424,feet,21008,21008,Arapaho and Roosevelt National Forests,Turnoff a ross from FR 266.1,USFS,"From Granby go N on CO hwy 125, stop across from FR 266.1,approx 18 mi down the road. Site is on E side across stream.",########,ac15_CSUesri,########,ac15_CSUesri,-106.097,40.34614
36,7b5277e7-6009-4342-904a-2b7e6738ff6e,########,20240602,GPS,GPS,Within 10m,WGS84,40.28098,-106.085,8637,feet,21008,21008,Arapaho and Roosevelt National Forests,Trail creek campground,USFS,From Granby take CO hwy125 N approx. 13 mi and stop on E side of road at trail creek campground. Plants are approx 170ft S of parking area.,########,ac15_CSUesri,########,ac15_CSUesri,-106.085,40.28098
37,2f906042-4cf0-4075-92fa-cba53b6ebe2e,########,20240602,GPS,GPS,Within 10m,WGS84,40.02231,-105.808,8818,feet,21008,21008,Arapaho and Roosevelt National Forests,4000 ft N meadow creek camground,USFS,"From Granby go S on US hwy 40, then NE on CR 84, stat left at major road forks. Site is 3 mi down road on SW side, afterfirst two major turns.",########,ac15_CSUesri,########,ac15_CSUesri,-105.808,40.02231
38,d4755026-15ac-4d3d-a19a-951be618232f,########,20240603,GPS,GPS,Within 5m,WGS84,40.16349,-105.907,8493,feet,21008,21008,Arapaho and Roosevelt National Forests,Table mountain,USFS,"From Granby, turn west onto CR 4064 from hwy 34. Take the first left onto a faint two track that joins a larger two track very shortly. turn right (west) onto that road and travel  ab9ut half a mile. Site is west of the road.",########,ac15_CSUesri,########,ac15_CSUesri,-105.907,40.16349
39,470e807a-c564-40cb-9f2a-bea3d6afa4d6,########,20240603,GPS,GPS,Within 5m,WGS84,40.17001,-105.904,8327,feet,21008,21008,Arapaho and Roosevelt National Forests,Table Mountain,USFS,"From Granby, take U.S. Highway 34 N. Turn onto unmarked FS road just before CR4064. Drive west about 1000 ft. Stop just before intersection.",########,ac15_CSUesri,########,ac15_CSUesri,-105.904,40.17001
40,76ebb032-b7d5-43a4-b8fd-65182cdd6580,########,20240603,GPS,GPS,Within 25m,WGS84,39.94657,-105.509,8650,feet,21001,21001,Arapaho and Roosevelt National Forests,Reroot trail ,USFS,"From Nederland go S on CO hwy 119, then turn W onto FR 132W and park approx. 1 mi down road. population is on S side of road.",########,ac15_CSUesri,########,ac15_CSUesri,-105.509,39.94657
41,d838f2ab-9c83-4ab0-a3c7-3b116e3c9411,########,20240611,GPS,GPS,Within 5m,WGS84,40.92674,-103.925,5260,feet,21006,21006,Arapaho and Roosevelt National Forests,North of Pawnee,USFS,"From Pine Bluffs, head south on CR164. Then head east on CR203 and CR6. Then head south on CR5 and CR111. Then head east on CR134 and south on CR119. Watch for two track on the east. Drive .5  mile on two track. The site on the north side of the two track.",########,cnhp_guest4,########,cnhp_guest4,-103.925,40.92674
42,c11ab1f0-5c51-4454-b471-b54861bcf59d,########,20240611,GPS,GPS,Within 5m,WGS84,40.92651,-103.915,5277,feet,21006,21006,Arapaho and Roosevelt National Forests,North of Pawnee Buttes,USFS,"From Pine Bluffs, head south on CR164. Then head east on CR203 and CR6. Then head south on CR5 and CR111. Then head east on CR134 and south on CR119. Watch for two track on the east. Drive 1mile on two track. The site on the south side of the two track, 120 ft from the rd.",########,cnhp_guest4,########,ac15_CSUesri,-103.915,40.92651
43,abe59a84-c88d-455f-81be-7e43ecd462be,########,20240611,GPS,GPS,Within 5m,WGS84,40.92719,-103.913,5254,feet,21006,21006,Arapaho and Roosevelt National Forests,North of Pawnee Buttes,USFS,"From Pine Bluffs, head south on CR164. Then head east on CR203 and CR6. Then head south on CR5 and CR111. Then head east on CR134 and south on CR119. Watch for two track on the east. Drive 1.1 miles Site is directly south of rd, on NW-NE slopes of rocky hill.",########,cnhp_guest4,########,cnhp_guest4,-103.913,40.92719
44,4a1e4b0e-0b3f-47f1-bc2d-eab8014f9460,########,20240614,GPS,GPS,Within 5m,WGS84,40.81525,-103.994,5142,feet,21006,21006,Arapaho and Roosevelt National Forests,Pawnee Buttes,USFS,"From Grover, head east on CR122, drive for 9.3 miles. Turn right (south) on CR107 and drive for 5 miles. Make a slight left onto Cr122 (west). Drive for 1.9 miles th3n turn left (north) onto Pawnee Buttes Trail Head. Stay on the trail head road for 1.2 miles then the parking lot will be on the north (right) side of the road. Hike down the Pawnee Buttes tr for about 0.4 miles. Site is alongside the tr on N facing slopes.",########,ac15_CSUesri,########,ac15_CSUesri,-103.994,40.81525
45,0c4ad5bf-d49e-47b7-8d0c-92ae2d861175,########,20240611,GPS,GPS,Within 5m,WGS84,40.91829,-103.858,5240,feet,21006,21006,Arapaho and Roosevelt National Forests,North of Pawnee Buttes,USFS,"From Pawnee Buttes TH, head S toward CR110.5, turn W onto CR110. Turn N onto CR127, continue onto CR129, then turn W onto CR 128, travel .75 miles.  Site is 100 ft S of Rd",########,cnhp_guest4,########,cnhp_guest4,-103.858,40.91829
46,04511eb8-084d-49ba-acd6-c957ac616b0a,########,20240614,GPS,GPS,Within 5m,WGS84,40.8071,-104.013,5351,feet,21006,21006,Arapaho and Roosevelt National Forests,Pawnee Buttes Dispersed Camping,USFS,"From Grover, head east on CR122, drive for 9.3 miles. Turn right (south) on CR107 and drive for 5 miles. Make a slight left onto Cr122 (west). Drive for 1.9 miles th3n turn left (north) onto Pawnee Buttes Trail Head. Stay on the trail head road for 1.5 miles then the site will be on the north side of rd 685 (trail head rd).",########,ac15_CSUesri,########,ac15_CSUesri,-104.013,40.8071
47,a0ce3605-8c0e-435b-b2e9-192a2657a75f,########,20240611,GPS,GPS,Within 5m,WGS84,40.78798,-103.915,4832,feet,21006,21006,Arapaho and Roosevelt National Forests,East of Pawnee Buttes,USFS,"From Pawnee Buttes trailhead head south, turn east onto CR110 1/2. Travel 4.6 miles then park at access gate. Site is 100ft north of  gate.",########,cnhp_guest4,########,cnhp_guest4,-103.915,40.78798
48,046c6e4e-3684-4af5-bedd-0775f104b847,########,20240612,GPS,GPS,Within 5m,WGS84,40.6375,-103.6,4352,feet,21006,21006,Arapaho and Roosevelt National Forests,SE corner ,USFS,"From Stoneham, head west on highway 14. Then turn north onto CR155. Travel 1.9 miles. Site is on the east bank of rd. ",########,cnhp_guest4,########,cnhp_guest4,-103.6,40.6375
49,c4dc6586-507a-484b-a0f4-b525bdf9e552,########,20240612,GPS,GPS,Within 5m,WGS84,40.84841,-103.656,4549,feet,21006,21006,Arapaho and Roosevelt National Forests,Money Saver Windmilll,USFS,"From Stoneham, head north on highway 71. Drive for about 17.5 miles then turn east on CR120. Merge east onto CR 149 . Turn right (S) onto the loop. Travel 1.8 miles. Site is on the east side of the road by first eroded area.",########,cnhp_guest4,########,cnhp_guest4,-103.656,40.84841
50,768b3bc7-4704-4bc7-b55e-3fd080c0f470,########,20240612,GPS,GPS,Within 5m,WGS84,40.96019,-103.731,5096,feet,21006,21006,Arapaho and Roosevelt National Forests,Hidden valley well,USFS,"From Stoneham, head N on hwy 71, then W on CR132. Turn N on FS709 for 0.8 miles. Site is 150 ft W of road, following rocky, shallow soils.",########,cnhp_guest4,########,cnhp_guest4,-103.731,40.96019
51,67e15d78-d904-4ad0-a854-da75f59e1a89,########,20240612,GPS,GPS,Within 5m,WGS84,40.97147,-103.718,5067,feet,21006,21006,Arapaho and Roosevelt National Forests,Rock Cave Windmill,USFS,"From Stoneham, head N on hwy 71, then W on CR132. Turn N on FS709 for 2 miles. Site is 150 ft E & W of road along hillside.",########,cnhp_guest4,########,cnhp_guest4,-103.718,40.97147
52,b8aef71f-57a1-48a1-ab1a-8ffb12cffa60,########,20240613,GPS,GPS,Within 5m,WGS84,40.64646,-103.897,4748,feet,21006,21006,Arapaho and Roosevelt National Forests,Wild Horse Creek,USFS,"From New Raymer, head W on hwy 14. Turn N onto CR123 and continue onto FS751. Travel 3.4 miles N of hwy 14. Site is 100 ft W of the rd.",########,cnhp_guest4,########,cnhp_guest4,-103.897,40.64646
53,196bc63e-cf36-4ca3-a986-46cab166d46e,########,20240614,GPS,GPS,Within 5m,WGS84,40.64876,-104.342,4807,feet,21006,21006,Arapaho and Roosevelt National Forests,Crow Valley CG,USFS,"From the Crow Vakkey CG, follow the small, obscure trail out of the back of the CG.",########,ac15_CSUesri,########,ac15_CSUesri,-104.342,40.64876
54,5981897f-3981-490b-b90f-e7fbaeb7bd58,########,20240613,GPS,GPS,Within 5m,WGS84,40.65701,-103.898,4692,feet,21006,21006,Arapaho and Roosevelt National Forests,Wild Horse Creek,USFS,"From New Raymer, head W on hwy 14. Turn N onto CR123 and continue onto FS751. Travel 4.4 miles N of hwy 14. Site is E of road on E-facing slopes as you drop in elevation nearing Wild Horse Creek.",########,cnhp_guest4,########,ac15_CSUesri,-103.898,40.65701
55,0ea5804d-a906-4f52-86fc-d5e0eef40f51,########,20240615,GPS,GPS,Within 5m,WGS84,40.68612,-104.36,4843,feet,21006,21006,Arapaho and Roosevelt National Forests,Seven Cross Windmill,USFS,"From Briggsdale, head N on CR77, then W on FS96. Head N 9n the two track to Seven Cross Windmill. Site is 700 ft W of windmill, near the ephemaral stream",########,ac15_CSUesri,########,ac15_CSUesri,-104.36,40.68612
56,9352481b-01da-48b6-a727-35effc832ad1,########,20240613,GPS,GPS,Within 5m,WGS84,40.63017,-103.926,4780,feet,21006,21006,Arapaho and Roosevelt National Forests,Wild Horse Creek,USFS,"From New Raymer, head W on hwy 14, then N on CR123. Turn W on CR90 then continue S on CR845 for abt 0.6 miles. Site is 300 ft W of rd.",########,cnhp_guest4,########,cnhp_guest4,-103.926,40.63017
57,eeed7d85-e5b7-4897-8482-6f87dfc22a90,########,20240615,GPS,GPS,Within 5m,WGS84,40.68128,-104.479,5043,feet,21006,21006,Arapaho and Roosevelt National Forests,Baker Draw Shooting Range,USFS,"From Briggsdale, head N on CR77, then W on FS96. Drive for 7.6 miles. About 1.5miles west of Baker Draw Shooting Range on the south side of FS96.",########,ac15_CSUesri,########,ac15_CSUesri,-104.479,40.68128
58,8dc52fbe-f4da-401c-b385-d4278d4abc61,########,20240613,GPS,GPS,Within 5m,WGS84,40.64908,-103.956,4753,feet,21006,21006,Arapaho and Roosevelt National Forests,Valley Windmill,USFS,"From New Raymer, head W on hwy 14, then N on CR123. Turn W on CR90 then continue S on CR845, 88, and 739. Park at windmill at end of rd and walk SW up the slope for abt 400 ft ",########,cnhp_guest4,########,cnhp_guest4,-103.956,40.64908
59,acba58b6-3158-40cd-a987-f4ebee5cb813,########,20240615,GPS,GPS,Within 5m,WGS84,40.72668,-104.685,5053,feet,21006,21006,Arapaho and Roosevelt National Forests,Little Owl Creek,USFS,"From Nuun, head east on highway 100 for 1.5 miles. Turn left (N) on CR37. Drive for.5 miles then turn right (E) on CR102. Site will be on the north side.",########,ac15_CSUesri,########,ac15_CSUesri,-104.685,40.72668
60,fd62848a-d849-479d-9737-e8760cc0df38,########,20240615,GPS,GPS,Within 5m,WGS84,40.76635,-104.677,5167,feet,21006,21006,Arapaho and Roosevelt National Forests,Eastman Creek,USFS,"From Nunn, head N on hwy 85, then E on CR108.  Turn S onto FS770, travel 800 ft. Site is 200 ft E of rd.",########,ac15_CSUesri,########,cnhp_guest4,-104.677,40.76635
61,891ed187-5d4b-4bca-b3f2-5752689d5378,########,20240615,GPS,GPS,Within 5m,WGS84,40.77352,-104.654,5149,feet,21006,21006,Arapaho and Roosevelt National Forests,Eastman Creek,USFS,"From Nunn, head N on hwy 85, then E on CR108.  Travel 1,000 ft. The site will be on the north sideof rd. Walk 1800ft north to the creek.",########,ac15_CSUesri,########,cnhp_guest4,-104.654,40.77352
62,4f3462b7-910e-46c0-9940-45aa1b61c370,########,20240615,GPS,GPS,Within 5m,WGS84,40.76854,-104.604,5162,feet,21006,21006,Arapaho and Roosevelt National Forests,Coal Creek,USFS,"From N7nn, head N on hwy85, then E on CR108 and continue onto FS795. Stop where FR795 intersects with Coal Creek. Site follows the bottom of Coal Creek.",########,ac15_CSUesri,########,ac15_CSUesri,-104.604,40.76854
63,e3d2b1d6-a384-4058-ae0a-985750269953,########,20240613,GPS,GPS,Within 5m,WGS84,40.64999,-104.41,4912,feet,21006,21006,Arapaho and Roosevelt National Forests,Sand Creek,USFS,"From Brriggsdale, head W o  hwy 14, turn N onto hwy 69. trabel abt .8 miles, site is 400 ft E of rd.",########,cnhp_guest4,########,cnhp_guest4,-104.41,40.64999
64,3a6460c3-e1b1-4b6b-81e0-368ed2e63879,########,20240616,GPS,GPS,Within 5m,WGS84,40.78145,-104.41,5039,feet,21006,21006,Arapaho and Roosevelt National Forests,Orr Windmill,USFS,"From Briggsdale, head north on CR77. Travel 10 miles then turn left (east) on FS110. Travel 3.9 miles then park along rd. Walk 1,100ft south of rd.",########,ac15_CSUesri,########,ac15_CSUesri,-104.41,40.78145
65,c342af46-21f2-493a-8596-768368b7768f,########,20240616,GPS,GPS,Within 5m,WGS84,40.80396,-104.461,5084,feet,21006,21006,Arapaho and Roosevelt National Forests,Willow Creek,USFS,"From Hereford, head W on CR136, then S on CR77. Turn W onto CR114 and continue onto FS114. Bare south on FS241 and park where Willow Creek nears the rd. Site is on the broad, grassy, NNW-facing slope just south of the creek drainage.",########,ac15_CSUesri,########,ac15_CSUesri,-104.461,40.80396
66,49a8b815-1eb1-4ede-a3dd-168d9814f23f,########,20240614,GPS,GPS,Within 5m,WGS84,40.80058,-103.996,5246,feet,21006,21006,Arapaho and Roosevelt National Forests,Pawnee Buttes,USFS,"From Grover , take CR122 and 107 towards Pwnee Buttes TH. Continue on FS685 abt 0.7 miles past the Buttes windmill. Site is near chalky slopes 100 ft E of rd.",########,cnhp_guest4,########,ac15_CSUesri,-103.996,40.80058
67,cf747e4f-144b-4f9c-93ff-38b195d5731d,########,20240616,GPS,GPS,Within 5m,WGS84,40.79994,-104.457,5029,feet,21006,21006,Arapaho and Roosevelt National Forests,Willow Creek,USFS,"From Hereford, head W on CR136, then S on CR77. Turn W onto CR114 and continue onto FS114. Bare south on FS241 for 1.3 miles. Site is on north facing aspects. Park between two grassy burms.",########,ac15_CSUesri,########,ac15_CSUesri,-104.457,40.79994
68,d481f63c-16c4-49af-b07c-73ba73754f60,########,20240616,GPS,GPS,Within 5m,WGS84,40.82933,-104.479,5218,feet,21006,21006,Arapaho and Roosevelt National Forests,Willow Creek,USFS,"From Hereford, head W on CR136, then S on CR77. Turn W onto CR114 and continue onto FS114. Bare N on FS241 and continue onto FS116 for abt .6 miles. Site is 500 ft N of rd.",########,ac15_CSUesri,########,ac15_CSUesri,-104.479,40.82933
69,e6355778-58a6-42f0-8afc-10a17a5aa8b1,########,20240616,GPS,GPS,Within 5m,WGS84,40.85085,-104.463,5199,feet,21006,21006,Arapaho and Roosevelt National Forests,Mine Windmill,USFS,"From Hereford, head W on CR136, then S on CR77. Turn W onto CR120 and continue for  6.9 miles. Site is 1000ft east of rd.",########,ac15_CSUesri,########,ac15_CSUesri,-104.463,40.85085
70,3f984625-a6a8-478a-a0ef-36c253906a43,########,20240616,GPS,GPS,Within 5m,WGS84,40.85374,-104.504,5216,feet,21006,21006,Arapaho and Roosevelt National Forests,Ashman windmill,USFS,"From Hereford, head  W on CR136, S on CR77, then W on CR120. Turn S on CR59 and watch for greenish whitish exposed soil W of rd, abt 1000 ft.",########,ac15_CSUesri,########,cnhp_guest4,-104.504,40.85374
71,d48e423b-639a-4dda-bc7c-f2310b37d17c,########,20240616,GPS,GPS,Within 5m,WGS84,40.83203,-104.504,5184,feet,21006,21006,Arapaho and Roosevelt National Forests,Fourteen Windmill,USFS,"From Grover, head  W on CR122, S on CR77, then W on CR120. Turn S on CR59 and drive about 1.5 miles until you have reached the second curve in the road and are adjacent to the Fourteen Windmill. The site will be on the east about 158 ft.",########,ac15_CSUesri,########,ac15_CSUesri,-104.504,40.83203
72,e2be4d5b-1855-470b-9918-7512c8746efa,########,20240617,GPS,GPS,Within 5m,WGS84,40.81483,-104.744,5414,feet,21006,21006,Arapaho and Roosevelt National Forests,Experimental Range,USFS,"From Nunn, head east on CR100. In .5 miles turn left (north) on US-85 N. Drive for 7.7 miles then turn right (east) on CR114. Drive for 2.5 miles. The site will be on the nortg side of road. Enter through the green gate. travel 1,000 ft.",########,ac15_CSUesri,########,ac15_CSUesri,-104.744,40.81483
73,f84f0a78-6f55-4af0-912c-ed7e175e9324,########,20240617,GPS,GPS,Within 5m,WGS84,40.87976,-104.64,5482,feet,21006,21006,Arapaho and Roosevelt National Forests,OHV area,USFS,"From Nunn, head N on hwy85, then E on CR122. Turn N onto FS45 and travel abt .7 miles. Site is 300 ft W of road on top of a small hill.",########,ac15_CSUesri,########,ac15_CSUesri,-104.64,40.87976
74,51a0e2f8-0f07-49f7-a577-270a384816f3,########,20240617,GPS,GPS,Within 5m,WGS84,40.88646,-104.636,5392,feet,21006,21006,Arapaho and Roosevelt National Forests,Drain Windmill,USFS,"From Nunn, head N on hwy85, then E on CR122. Turn N onto FS45 and travel abt 1 mile. Site is on the east side of road (left) where there is a depression. Greenish-blue in early summer, about 530ft.",########,ac15_CSUesri,########,cnhp_guest4,-104.636,40.88646
75,44fb0c90-d13d-4ce0-bdab-742b11f2e461,########,20240612,GPS,GPS,Within 5m,WGS84,40.85703,-103.679,4602,feet,21006,21006,Arapaho and Roosevelt National Forests,Lewis well,USFS,"From Stoneham, head north on highway 71. Drive for about 17.5 miles then turn east on CR120. Merge east onto CR 149 . The site is east of 149 in 1700ft.",########,cnhp_guest4,########,cnhp_guest4,-103.679,40.85703
76,37b92d72-087d-4efd-a36a-4b9c522ec50f,########,20240617,GPS,GPS,Within 5m,WGS84,40.89273,-104.609,5466,feet,21006,21006,Arapaho and Roosevelt National Forests,Caliche windmill,USFS,"From Nunn, head N on hwy85, then E on CR122. Trun N onto FS 45 and continue past OHV TH onto FS640. Stop at Caliche windmill on top of hill. Walk E around the hardpan bluffs. Site is on the E-facing foot of bluffs",########,ac15_CSUesri,########,ac15_CSUesri,-104.609,40.89273
77,c542316b-9f06-4c32-a0f0-d58e6a92f944,########,20240612,GPS,GPS,Within 5m,WGS84,40.85081,-103.667,4610,feet,21006,21006,Arapaho and Roosevelt National Forests,Lewis well,USFS,"From Stoneham, head north on highway 71. Drive for about 17.5 miles then turn east on CR120. Merge east onto CR 149 . Turn right (S) onto the loop. travel 1 mile. Site is 100 ft S of Rd.",########,cnhp_guest4,########,cnhp_guest4,-103.667,40.85081
78,44e476a0-2446-4e5d-a0d7-d90c4ebd72b2,########,20240617,GPS,GPS,Within 5m,WGS84,40.87344,-104.578,5288,feet,21006,21006,Arapaho and Roosevelt National Forests,West Farr Windmill,USFS,"From Nunn, head N on hwy85, then E on CR122. Trun N onto FS 45 and continue past OHV TH onto FS640 for 3.3 miles. When you're about 1200ft from CR122, stop and travel 150ft east of rd.",########,ac15_CSUesri,########,ac15_CSUesri,-104.578,40.87344
79,c810cdc6-92e8-4a63-874b-d848f2bc6fe6,########,20240617,GPS,GPS,Within 5m,WGS84,40.81483,-104.564,5331,feet,21006,21006,Arapaho and Roosevelt National Forests,Jackpot well,USFS,"From Nunn, head N on hwy85, then E on CR114. Turn N on FS53 and travel 900 ft. Site is 400 ft to the W.",########,ac15_CSUesri,########,ac15_CSUesri,-104.564,40.81483
80,db7acd7d-8aca-4a75-8a71-0c5e8c19ea53,########,20240613,GPS,GPS,Within 5m,WGS84,40.62541,-104.114,4920,feet,21006,21006,Arapaho and Roosevelt National Forests,South of hwy 14,USFS,"Fro  New Raymer, head S on hwy 14. Turn south Onto CR 103, then turn W onto CR 88. Travel about half a mile, the site is 135 feet to the S of rd.",########,cnhp_guest4,########,cnhp_guest4,-104.114,40.62541
81,b09d806d-b634-43a7-b31f-610a2b9d71ff,########,20240617,GPS,GPS,Within 5m,WGS84,40.81251,-104.524,5175,feet,21006,21006,Arapaho and Roosevelt National Forests,Glasspool Windmill,USFS,"From Nunn, head N on hwy85, then E on CR114. Turn N on FS53 and travel 4600ft until the road shifts to FS650. Bear east. Continue for 1.6 miles then turn east (right) on FS114. In 4200ft the site will be 500ft south of the road.",########,ac15_CSUesri,########,ac15_CSUesri,-104.524,40.81251
82,ed9f09be-3752-44d4-bf0d-7fe4a84ed2fd,########,20240614,GPS,GPS,Within 5m,WGS84,40.63714,-104.523,4994,feet,21006,21006,Arapaho and Roosevelt National Forests,Monument Well,USFS,"From Briggsdale, head west on highway 14 for 10 miles then turn left (south) just before highway 57 intersects with 14. Site is on the south side of highway 14. ",########,cnhp_guest4,########,cnhp_guest4,-104.523,40.63714
83,b303a252-6843-4252-a845-23ebd3561960,########,20240617,GPS,GPS,Within 5m,WGS84,40.8011,-104.543,5302,feet,21006,21006,Arapaho and Roosevelt National Forests,Willow Creek,USFS,"From Nunn, head N on hwy85, then E on CR114. Turn S on CR53 then E on CR112. Turn N on FS55, travel 1100 ft, park at lowest point in the drainage. Site is 150 ft to the E.",########,ac15_CSUesri,########,ac15_CSUesri,-104.543,40.8011
84,4bfd8c92-4f53-46f0-a683-02af63249d73,########,20240611,GPS,GPS,Within 5m,WGS84,40.92603,-103.93,5253,feet,21006,21006,Arapaho and Roosevelt National Forests,North of Pawnee Buttes,USFS,"From Pine Bluffs, head south on CR164. Head east on CR203 and CR6. Then head south on CR5 and CR111. Then head east on CR134 and south on CR119. Then watch for two track on the east. Drive 500 ft then the site will be south of the two track.",########,ac15_CSUesri,########,ac15_CSUesri,-103.93,40.92603
85,619dd68c-8f9e-4b1f-ae6a-81dbcdda4af7,########,20240612,GPS,GPS,Within 5m,WGS84,40.64709,-103.599,4541,feet,21006,21006,Arapaho and Roosevelt National Forests,SE corner,USFS,"From Stoneham, head W on hwy 14 then turn N onto CR 155. Travel 2.5 miles, then park on the side of the road. Site is 200 ft to the W of the road.",########,ac15_CSUesri,########,ac15_CSUesri,-103.599,40.64709
86,6e97ba81-078e-4456-8f81-43f0a38fd73d,########,20240613,GPS,GPS,Within 5m,WGS84,40.65117,-103.955,4740,feet,21006,21006,Arapaho and Roosevelt National Forests,Valley Windmill,USFS,"From New Raymer, head west on highway 86. Then turn right (north) on CR123. Drive for 1.5 miles then turn left (west) on CR90. Drive for 1 mile then turn left (south) on CR845. The road turns to CR88 for .5 miles then to CR739. Park by the Valley windmill. The site is on the east hillside",########,ac15_CSUesri,########,ac15_CSUesri,-103.955,40.65117
87,72f936cb-80e3-426f-934c-f99f11cee284,########,20240614,GPS,GPS,Within 5m,WGS84,40.81737,-103.994,5190,feet,21006,21006,Arapaho and Roosevelt National Forests,Pawnee Buttes Trail,USFS,"From Grover, head east on CR122, drive for 9.3 miles. Turn right (south) on CR107 and drive for 5 miles. Make a slight left onto Cr122 (west). Drive for 1.9 miles th3n turn left (north) onto Pawnee Buttes Trail Head. Stay on the trail head road for 1.2 miles then the parking lot will be on the north (right) side of the road.",########,ac15_CSUesri,########,ac15_CSUesri,-103.994,40.81737
88,4c84c32c-7feb-4ab9-a6f1-0185c488a7ae,########,20240614,GPS,GPS,Within 5m,WGS84,40.8001,-104.05,5224,feet,21006,21006,Arapaho and Roosevelt National Forests,Pawnee Buttes,USFS,"From Grover, head E on CR122, then S on CR107. At the intersection of 112 and 107, turn W. Park after 200 ft. Site is on bare, N facing slopes 100 ft S of road",########,ac15_CSUesri,########,ac15_CSUesri,-104.05,40.8001
89,3764a9fa-cdaf-4d6a-860f-55ff66047df8,########,20240614,GPS,GPS,Within 5m,WGS84,40.8005,-104.05,5200,feet,21006,21006,Arapaho and Roosevelt National Forests,Pawnee Buttes,USFS,"From Grover, head E on CR122, then S on CR107. At the intersection of 112 and 107, turn W. Park after 200 ft. Site is on N side of road. ",########,ac15_CSUesri,########,ac15_CSUesri,-104.05,40.8005
90,1ebe0461-3e05-408e-ab89-bc09f2b33c32,########,20240614,GPS,GPS,Within 5m,WGS84,40.81406,-104.05,5434,feet,21006,21006,Arapaho and Roosevelt National Forests,Pawnee Buttes,USFS,"From Grover, head E on CR122, then S on CR107. Turn E onto FS681. Park at intersection with decomissioned rd. Walk SSW abt 250 ft. Site is on rocky soil with bare patches.",########,ac15_CSUesri,########,cnhp_guest4,-104.05,40.81406
91,cbc0840d-db2b-46d2-8413-3af312884c09,########,20240614,GPS,GPS,Within 5m,WGS84,40.7906,-104.105,5185,feet,21006,21006,Arapaho and Roosevelt National Forests,Pawnee Buttes,USFS,"From Grover, head south on CR 390 for 5.8 miles. Then turn left (east) on CR112. Drive for 3.5 miles then turn right (south) on CR103. In 900ft FS 677 will be on the right (west). Drive for .8 miles then the site will be on the left (south).",########,ac15_CSUesri,########,ac15_CSUesri,-104.105,40.7906
92,cd3b0ff8-28fa-4e4f-9b87-4c274a908389,########,20240615,GPS,GPS,Within 5m,WGS84,40.66859,-104.586,5048,feet,21006,21006,Arapaho and Roosevelt National Forests,Ditch Well,USFS,"From Ault, head W on hwy 14, then N on CR49. Head E on FS500 to the end of the road. Site is 200 ft NE from rd, N of ditch.",########,ac15_CSUesri,########,ac15_CSUesri,-104.586,40.66859
93,d969bc1c-6c68-4598-8480-5dc19ce272ed,########,20240611,GPS,GPS,Within 5m,WGS84,42.91925,-103.477,3867,feet,20702,20702,Nebraska National Forest,N sideSugar loaf rd,USFS,From Crawfird go Non CR 2 then turn W  onto Sugarloaf rd. Site is approx 1mi downroad on NW side.,########,cnhp_guest4,########,cnhp_guest4,-103.477,42.91925
94,6a651d84-5158-4f82-a3ca-3e0abf1025a9,########,20240612,GPS,GPS,Within 5m,WGS84,42.9649,-103.433,3879,feet,20702,20702,Nebraska National Forest,FR909,USFS,From craford go N on CR2 then turn E on to FR909. Take for aprox 4 mi. Site is on west side of road,########,cnhp_guest4,########,cnhp_guest4,-103.433,42.9649
95,e3bf37bc-ec4e-4809-9dd9-984df5738ac5,########,20240612,GPS,GPS,Within 5m,WGS84,42.96697,-103.44,3957,feet,20702,20702,Nebraska National Forest,FR 909,USFS,From Crawford go N on CR 2. Then turn E on FR 909. Travel for approx 3.75 miles. Site is on NE hillslope.,########,cnhp_guest4,########,cnhp_guest4,-103.44,42.96697
96,343fd99a-edb3-4453-b558-a1d226060d76,########,20240612,GPS,GPS,Within 5m,WGS84,42.96358,-103.458,3987,feet,20702,20702,Nebraska National Forest,FR909,USFS,From Crawford travel N on CR2. Turn E on to FR909 and travel 3.25 mi. Site is N of road,########,cnhp_guest4,########,cnhp_guest4,-103.458,42.96358
97,7d55efe5-ef49-4ef1-aa4f-2f01dd851524,########,20240612,GPS,GPS,Within 5m,WGS84,42.96508,-103.462,4019,feet,20702,20702,Nebraska National Forest,FR 909,USFS,From craford go N on CR2 then turn E on to FR909. Take for aprox 3 mi. Site N side of road walked 300 ft uphill.,########,cnhp_guest4,########,cnhp_guest4,-103.462,42.96508
98,cd5cc94f-5bf3-4a44-99cc-27a4e511405c,########,20240612,GPS,GPS,Within 5m,WGS84,42.9651,-103.47,3896,feet,20702,20702,Nebraska National Forest,FR909,USFS,From craford go N on CR2 then turn E on to FR909. Take for aprox 2.25 mi. Site is on North side of road about 80 feet from road,########,cnhp_guest4,########,cnhp_guest4,-103.47,42.9651
99,46069ab2-6667-458b-9d28-9d83a324bbc3,########,20240612,GPS,GPS,Within 5m,WGS84,42.95697,-103.506,3830,feet,20702,20702,Nebraska National Forest,FR909,USFS,From craford go N on CR2 then turn E on to FR909. Drive for 500 feet. Data recorded on East side of road,########,cnhp_guest4,########,cnhp_guest4,-103.506,42.95697
100,a548cee9-b1f2-42ba-b042-8c6c19c8bd7c,########,20240612,GPS,GPS,Within 5m,WGS84,42.95309,-103.47,3939,feet,20702,20702,Nebraska National Forest,FR 957,USFS,"From craford go N on CR2 then turn E ontoF$ 909,and take the S turn onto FR957.Site is approx. 2 mi downroad on W side of road.",########,cnhp_guest4,########,cnhp_guest4,-103.47,42.95309
101,1df8ef51-7f70-444e-891f-c305720627b4,########,20240612,GPS,GPS,Within 5m,WGS84,42.80508,-103.527,3703,feet,20702,20702,Nebraska National Forest,Sand Creek Rd,USFS,From crawford take Toadstool rd N and turn west onto Sand Creek rd. Travel approx 2 miles. Stop before private land sign. Observation on N side of rd.,########,cnhp_guest4,########,cnhp_guest4,-103.527,42.80508
102,3a3a168a-96a4-4e7a-a2fd-a93378bd11f7,########,20240612,GPS,GPS,Within 5m,WGS84,42.85718,-103.589,3765,feet,20702,20702,Nebraska National Forest,Toadstool park trail,USFS,"FromCrawford go N on Toadstool rd, then W on FR 902. Plants along self-guided trail in exposed areas.",########,cnhp_guest4,########,cnhp_guest4,-103.589,42.85718
103,7142f3eb-9516-45a1-82cd-f2fcdfa3dd89,########,20240612,GPS,GPS,Within 5m,WGS84,42.91677,-103.512,3781,feet,20702,20702,Nebraska National Forest,Sugarloaf Road,USFS,From crawford take Cr2 N then turn W onto sugarloaf rd. Travel 2.8 mi and site is on South ,########,cnhp_guest4,########,cnhp_guest4,-103.512,42.91677
104,57e9f31e-4c31-4673-9a9a-0f072c20173a,########,20240613,GPS,GPS,Within 5m,WGS84,42.83291,-103.6,4037,feet,20702,20702,Nebraska National Forest,Hudson-meng bison bone bed,USFS,From Crawford travel N to Toadstool Road. Turn W to Sandcreek Rd and travel for 7 miles to Hudson Meng Buffalo Bone Bed and park in visitor center. Take Bison trail 0.5 mi and site is located in drainage running East and West,########,cnhp_guest4,########,cnhp_guest4,-103.6,42.83291
105,030d7580-0e8a-49d4-8f36-c5edbf256c96,########,20240613,GPS,GPS,Within 5m,WGS84,42.83239,-103.6,4074,feet,20702,20702,Nebraska National Forest,Hudson Meng Buffalo Bone Bed,USFS,From Crawford travel N to Toadstool Road. Turn W to Sandcreek Rd and travel for 7 miles to Hudson Meng Buffalo Bone Bed and park in visitor center. Take Bison trail 0.5 mikes and follow drainage to Eastern upland,########,cnhp_guest4,########,cnhp_guest4,-103.6,42.83239
106,e6f8542f-2617-45f9-93cf-d24c2f329081,########,20240613,GPS,GPS,Within 5m,WGS84,42.83146,-103.598,4097,feet,20702,20702,Nebraska National Forest,Hudson - Meng Buffalo Bonebed,USFS,From Crawford travel N to Toadstool Road. Turn W to Sandcreek Rd and travel for 7 miles to Hudson Meng Buffalo Bone Bed and park in visitor center. Take Bison trail 0.5 mi thengo Ein dranag3. Turn S onto upland and walk 750ft. ALSO on NE slope behind bathroom ,########,cnhp_guest4,########,cnhp_guest4,-103.598,42.83146
107,47a766a2-cd3c-4de9-924e-69354a28c4fc,########,20240613,GPS,GPS,Within 5m,WGS84,42.82472,-103.597,4245,feet,20702,20702,Nebraska National Forest,Roundtop Mountain,USFS,From Crawford travel N to Toadstool Road. Turn W to Sandcreek Rd and travel for 7 miles to Hudson Meng Buffalo Bone Bed and park in visitor center. Hike southeast on to pine butte about 1000 ft. ,########,cnhp_guest4,########,cnhp_guest4,-103.597,42.82472
108,ad1cc41d-ad2d-461e-a85d-c19c573620a8,########,20240613,GPS,GPS,Within 5m,WGS84,42.82491,-103.593,4345,feet,20702,20702,Nebraska National Forest,Roundtop mountain,USFS,"From Crawford travel N to Toadstool Road. Turn W to Sandcreek Rd and travel for 7 miles to Hudson Meng Buffalo Bone Bed and park in visitor center. Hike SE approx 2,000 ft uphill on Pine Butte. Population in alluvial fan on N facing slope.",########,cnhp_guest4,########,cnhp_guest4,-103.593,42.82491
109,f90b9028-574c-4525-bea7-eedaf2442827,########,20240613,GPS,GPS,Within 5m,WGS84,42.82976,-103.602,4117,feet,20702,20702,Nebraska National Forest,Hudson - Meng Buffalo Bonebed,USFS,"From Crawford travel N to Toadstool Road. Turn W to Sandcreek Rd and travel for 7 miles to Hudson Meng Buffalo Bone Bed and park in visitor center. Take Bison trail 200ft, siteonEfacingslope",########,cnhp_guest4,########,cnhp_guest4,-103.602,42.82976
110,4eeaa43f-1b78-4897-b220-81efc8d7b488,########,20240614,GPS,GPS,Within 5m,WGS84,42.6793,-103.158,3907,feet,20702,20702,Nebraska National Forest,Roberts trailhead and campground,USFS,"From Crawford take old highway 20 E. Then turn S onto Norman rd. Continue until Bethel rd and then turn E continue onto FR 737. Travel 2,500 ft plants on both sides of the rd.",########,cnhp_guest4,########,cnhp_guest4,-103.158,42.6793
111,d6ade22a-202a-47b1-a17a-d531eabc61f9,########,20240614,GPS,GPS,Within 5m,WGS84,42.64114,-103.258,3974,feet,20702,20702,Nebraska National Forest,West Ash Road,USFS,"From Crawford, take W Ash Creek Road 9 mi. Site is on E side of road 100 ft",########,cnhp_guest4,########,cnhp_guest4,-103.258,42.64114
112,5477bbf7-4ab2-496f-a784-1c08d4246162,########,20240614,GPS,GPS,Within 5m,WGS84,42.6381,-103.257,3977,feet,20702,20702,Nebraska National Forest,West Ash Road,USFS,From Crawford take West ash road for 9.1 milew. Plants are on W / downhill side of rd.,########,cnhp_guest4,########,cnhp_guest4,-103.257,42.6381
113,3c77f1fb-55c2-4cdb-a534-88432ab0b219,########,20240614,GPS,GPS,Within 5m,WGS84,42.61945,-103.238,4231,feet,20702,20702,Nebraska National Forest,W Ash Rd,USFS,From Crawford take West ash road for 11.3 mi. Park on North sideof road and cross barb wire fench at fall tree. Population is on north facing slope,########,cnhp_guest4,########,cnhp_guest4,-103.238,42.61945
114,ea646aa2-f7d0-464e-affb-1760fe0fe27f,########,20240614,GPS,GPS,Within 5m,WGS84,42.6394,-103.096,4326,feet,20702,20702,Nebraska National Forest,FR 702,USFS,"From Crawford take hwy 20 NE to West ash creek rd S then turn E onto Table rd then N onto McGannon rd. Turn N again onto FR 702. Site is approx. 2,800 ft down road on E side of road",########,cnhp_guest4,########,cnhp_guest4,-103.096,42.6394
115,dcebda7b-6b83-4548-b0a6-898be553abac,########,20240614,GPS,GPS,Within 5m,WGS84,42.64357,-103.093,4264,feet,20702,20702,Nebraska National Forest,FR702,USFS,From Crawford take hwy 20 NE to West ash creek rd S then turn E onto Table rd then N onto McGannon rd. Turn N again onto FR 702. Site is approx. 4038 ft down road on E side of road.,########,cnhp_guest4,########,cnhp_guest4,-103.093,42.64357
116,8fc3c03a-54ef-4fc4-99d3-955e09ae6974,########,20240614,GPS,GPS,Within 5m,WGS84,42.64334,-103.091,4237,feet,20702,20702,Nebraska National Forest,FR221,USFS,From Crawford take hwy 20 NE to West ash creek rd S then turn E onto Table rd then N onto McGannon rd. Turn N again onto FR 702. Then turn E on to FR221,########,cnhp_guest4,########,cnhp_guest4,-103.091,42.64334
117,8f1ca707-9403-4794-93e3-6534db6ca98c,########,20240615,GPS,GPS,Within 5m,WGS84,42.64643,-103.043,4122,feet,20702,20702,Nebraska National Forest,FR732,USFS,"From Chadron take HW385 South and turn West on Table Rd. Take Table Road and turn N onto FR732 and drive for 0.75mi. Site is 1,400 feet direct NW but will have to cross ravines",########,cnhp_guest4,########,cnhp_guest4,-103.043,42.64643
118,aae9ab3e-dc66-4eb0-823a-576dfc92a809,########,20240615,GPS,GPS,Within 5m,WGS84,42.67756,-103.091,3912,feet,20702,20702,Nebraska National Forest,FR702,USFS,"From Chadron take highway 20 W turn S onto deadhorse rd turn W onto FR 702. Travel approx 3,500 ft . Plant is on S side of rd.",########,cnhp_guest4,########,cnhp_guest4,-103.091,42.67756
119,9508c737-c297-4eb7-bfd3-b7b69335cfc7,########,20240615,GPS,GPS,Within 5m,WGS84,43.64672,-102.958,2708,feet,20705,20705,Nebraska National Forest,FR 7053W ,USFS,"From Fareburn take county rd 18/E French Creek until it turns into FR 7053 W. Travel for approx 3,715 ft turn S into cattle grazing allotment marked with large rock on right fence post.",########,cnhp_guest4,########,cnhp_guest4,-102.958,43.64672
120,cde3c79f-e384-4e3d-a975-077d13ca9065,########,20240616,GPS,GPS,Within 5m,WGS84,43.67779,-102.948,3004,feet,20705,20705,Nebraska National Forest,Unmarked rd near 3040 elevation,USFS,From Fairburn take E French Creek rd. East until it turns into FR7053W take until end. Turn NW onto unmarked rd and travel 2 miles towards observation point. Plants on E side of unmarked rd.,########,cnhp_guest4,########,cnhp_guest4,-102.948,43.67779
121,ccaa5861-3755-44ec-80f0-f9e857a4a1fe,########,20240616,GPS,GPS,Within 5m,WGS84,43.69555,-102.876,2836,feet,20705,20705,Nebraska National Forest,Old Highway 40,USFS,5From Red Shirt go NE on Tatanka Numpa Rd turn N on to State HW40. Turn E on to Old HW40. Drive approx 3 miles. Site is on 4WD two track approx 500ft N.,########,cnhp_guest4,########,cnhp_guest4,-102.876,43.69555
122,afd70d5a-c294-4587-9e5e-da5a27a47eee,########,20240617,GPS,GPS,Within 5m,WGS84,43.69926,-102.89,2908,feet,20705,20705,Nebraska National Forest,Old highway 40,USFS,From Red Shirt go NE on Tatanka Numpa Rd turn N on to State HW40. Turn E on to Old HW40. Drive approx 1.4 miles. Site is on S side of road,########,cnhp_guest4,########,cnhp_guest4,-102.89,43.69926
123,14ada1db-9a3f-4e59-8ddc-1cb305344b5d,########,20240628,GPS,GPS,Within 5m,WGS84,44.14183,-104.505,4579,feet,20609,20609,Medicine Bow-Routt National Forest,Old Sundance Road,USFS,From Upton go E on Ash st and continue onto hwy 116. Turn S onto Old Sundance Rd and continue for approx 2 mi. Site is on S side of road  in clearing.,########,cnhp_guest4,########,cnhp_guest4,-104.505,44.14183
124,3d093c08-5617-4a43-b180-62ee2be413fe,########,20240628,GPS,GPS,Within 5m,WGS84,44.08192,-104.502,4351,feet,20609,20609,Medicine Bow-Routt National Forest,Plumcreek trail,USFS,From Upton go E on Ash st and continue onto hwy 116. Turn S onto Old Sundance Rd and continue until gate. Turn E onto unmakered FS road and continue to Plum creek trail. Walked approx. 500 ft E. ,########,cnhp_guest4,########,cnhp_guest4,-104.502,44.08192
125,1f6a9804-fc74-4268-b322-85fa9acc6590,########,20240628,GPS,GPS,Within 5m,WGS84,44.04797,-104.49,4145,feet,20609,20609,Medicine Bow-Routt National Forest,Community Pasture Rd,USFS,"From Upton, heaad NE on CR116, then turn S on FS913. Continue S on 913 until it intersects with FS1253.E. Site will be to the E of FS913.",########,cnhp_guest4,########,cnhp_guest4,-104.49,44.04797
126,b0224d11-9cde-4da8-ab25-0158363c816d,########,20240627,GPS,GPS,Within 5m,WGS84,43.68671,-105.051,4523,feet,20609,20609,Medicine Bow-Routt National Forest,FR1262.C,USFS,"From Wright, head east onWY-450 E. Drive for 22 miles. Turn north on Keeline Rd. (FS930). Drive for 2 miles then veer east (right) onto FS1262.C. The site will be on the north side of rd by the guzzler. On east facing slopes of rocky hills.",########,ac15_CSUesri,########,ac15_CSUesri,-105.051,43.68671
127,beb901c1-31ce-4a3e-b505-2f2b424fa022,########,20240629,GPS,GPS,Within 5m,WGS84,44.69634,-105.274,4063,feet,20609,20609,Medicine Bow-Routt National Forest,SODA,USFS,"From Weston, take CR49 N. Turn east onto Heald rd. Then turn north onto FR1247. Turn west onto 1247.B-SODA. Site is on the South facing slope in 3000ft from fork.",########,ac15_CSUesri,########,ac15_CSUesri,-105.274,44.69634
128,15ffff59-e082-4c14-968c-7fa5be1d0cb1,########,20240629,GPS,GPS,Within 5m,WGS84,44.70239,-105.278,4070,feet,20609,20609,Medicine Bow-Routt National Forest,Gleason Draw,USFS,"From Weston, take CR49 N. Turn east onto Heald rd. Then turn north onto FR1247. Turn east onto 1247 Gleason Draw. The site is 5000ft from the fork on both sides of rd.",########,ac15_CSUesri,########,ac15_CSUesri,-105.278,44.70239
129,6dfa7f45-2dcf-4aee-84fc-032165670c10,########,20240625,GPS,GPS,Within 5m,WGS84,43.54981,-105.104,5071,feet,20609,20609,Medicine Bow-Routt National Forest,Rochelle Hills Rd,USFS,"From Wright, head south on WY59 S for 2 mi. Then turn east on WY450 E. Drive 15 miles then turn south (right) on School Creek Rd for 7.5 mi. Turn left on pine canyon rd. Drive 2.3 mi then turn right on Rochelle Hills rd for 1.8 miles. The site is by a rock formation 250 ft from road.",########,cnhp_guest4,########,cnhp_guest4,-105.104,43.54981
130,3ba458b7-081b-4ae8-ab99-ac77bc7770ae,########,20240626,GPS,GPS,Within 5m,WGS84,43.27977,-105.011,4765,feet,20609,20609,Medicine Bow-Routt National Forest,Cow Creek Buttes,USFS,From Bill take Highway59 N. Turn east onto CR45. Then SE onto FR962. Travel 3 miles. Collection site is on north side of rd.,########,cnhp_guest4,########,cnhp_guest4,-105.011,43.27977
131,69692894-c48c-4665-9d82-3157bf98c2c5,########,20240626,GPS,GPS,Within 5m,WGS84,43.23873,-105.071,4641,feet,20609,20609,Medicine Bow-Routt National Forest,LittleRat Creek,USFS,"From Bill go N on hwy 59, then turnE onto CR38,thenSE onto FR 959. Continue for approx. 3.8 mi. Site is on E dide of road.",########,cnhp_guest4,########,cnhp_guest4,-105.071,43.23873
132,5b7f559a-6fcf-4740-b714-3e621348a19e,########,20240627,GPS,GPS,Within 5m,WGS84,43.76324,-105.133,4498,feet,20609,20609,Medicine Bow-Routt National Forest,Black Thunder Creek,USFS,"From little thunder reservoir, head E on CR 450. Turn N onto FS930. Continue for 9 miles. Siteis N of rd.",########,cnhp_guest4,########,cnhp_guest4,-105.133,43.76324
133,b3f28c81-20f1-47c6-9cd6-1ae224b0e5a2,########,20240627,GPS,GPS,Within 5m,WGS84,43.81292,-104.632,4309,feet,20609,20609,Medicine Bow-Routt National Forest,FR1243.A,USFS,"From Fairview, head east on highway 58. Turn north on Mush Creek Rd. Drive 0.7mi then turn west onUpton Fairview Rd for 1 mi. Turn east on FR1243.A for .4mi. Site is 1000ft SW of rd.",########,cnhp_guest4,########,cnhp_guest4,-104.632,43.81292
134,e1761dde-8a9b-465c-bb58-fe3d8870fa1a,########,20240627,GPS,GPS,Within 5m,WGS84,43.82573,-104.64,4263,feet,20609,20609,Medicine Bow-Routt National Forest,FS1243,USFS,"From Fairview, head east on Mush Creek Rd for .7 miles. Then head north on Upton Fairview Rd for 1.7 miles.",########,cnhp_guest4,########,cnhp_guest4,-104.64,43.82573
135,44031259-892e-47ea-90c9-ef7cf5c4d81a,########,20240628,GPS,GPS,Within 5m,WGS84,44.14531,-104.491,4615,feet,20609,20609,Medicine Bow-Routt National Forest,FR913.A,USFS,"1.5mi
From Uptown, take 116 E and head East for 9.2 miles. Take Old Sundance Rd 1.2 miles South. Take FR913.A 1500 feet. Point west of fork.",########,cnhp_guest4,########,cnhp_guest4,-104.491,44.14531
136,f66e52f6-dd50-432b-8c9e-3c1d5965c8da,########,20240629,GPS,GPS,Within 5m,WGS84,44.70225,-105.299,3795,feet,20609,20609,Medicine Bow-Routt National Forest,FR 1032,USFS,"From Gillette go N on hwy 14 turn NE onto hwy 59, then SE o toCR 49. Turn E onto FR 1013 and travel approx. 1.2 mi. Site is on S side of road.",########,cnhp_guest4,########,cnhp_guest4,-105.299,44.70225
137,012b60e9-c3ae-4bd9-926f-f0801afa9d5d,########,20240629,GPS,GPS,Within 5m,WGS84,44.70134,-105.287,3853,feet,20609,20609,Medicine Bow-Routt National Forest,SODA,USFS,"From Weston go NEon CR 59 then turn E onto Heald rd. Turn N onto FR 1247 then W onto FR 1247.B/SODA. Continue approx. 1.5mi passing through fenceline on E side of road. Park at road end,collection at end of road.",########,cnhp_guest4,########,cnhp_guest4,-105.287,44.70134
138,3f53f224-0dfd-4f29-ad91-547ff62d228d,########,20240630,GPS,GPS,Within 5m,WGS84,43.67179,-104.83,4340,feet,20609,20609,Medicine Bow-Routt National Forest,Fields Draw,USFS,"From Wright, head south on WY-59 for 2 miles. Turn east on WY-450 E for 34 miles. Turn east on Cellers Loop Rd. Drive for 2.3 miles then head NW 2000ft. The site will be a disturbed cattle field.",########,cnhp_guest4,########,cnhp_guest4,-104.83,43.67179
139,5a7fccfd-c7ba-4498-badd-a7ecc7a37323,########,20240630,GPS,GPS,Within 5m,WGS84,43.9355,-104.651,4348,feet,20609,20609,Medicine Bow-Routt National Forest,FR1227,USFS,"From Upton, head south on county road 59 for approximately 10 miles. Head west 4255 feet on FR 1227. Walk 800 feet north.",########,cnhp_guest4,########,cnhp_guest4,-104.651,43.9355
140,07714eac-94f7-4e40-aa40-d36671270cd2,########,20240630,GPS,GPS,Within 5m,WGS84,44.07603,-104.671,4238,feet,20609,20609,Medicine Bow-Routt National Forest,Lonetree Creek,USFS,"Fro Upton, head  W on CR34. Turn S onto FS911.D and continueonto 911.A.Atthe intersection with 911.A,  site is 500 ft to the SW.",########,cnhp_guest4,########,cnhp_guest4,-104.671,44.07603
141,4007e844-372a-4ae1-b0e0-c6b9ef71c9e8,########,20240630,GPS,GPS,Within 5m,WGS84,44.02487,-104.513,4212,feet,20609,20609,Medicine Bow-Routt National Forest,FR 1325,USFS,From Upton go SE on hwy 16 then turn N on FR 1325.A. Taketo intersection with FR 1325 andpark. Site is on S side of road.,########,cnhp_guest4,########,cnhp_guest4,-104.513,44.02487
142,4130e9c4-c022-4da9-80fb-b6213cb4859c,########,20240630,GPS,GPS,Within 5m,WGS84,44.04659,-104.406,4521,feet,20609,20609,Medicine Bow-Routt National Forest,Sunquist Draw,USFS,"From Osage, head nw on E Railroad St then east on Skull Creek Rd for 5.9 miles. Keep west at the first fork in 0.1 miles then again in 0.5 miles. Site will be north of rd about 200ft.",########,cnhp_guest4,########,cnhp_guest4,-104.406,44.04659
143,e363402c-d957-4c6b-83fb-448891949459,########,20240701,GPS,GPS,Within 5m,WGS84,43.2693,-105.172,4680,feet,20609,20609,Medicine Bow-Routt National Forest,FS970.S4,USFS,"From Bill, head north on WY-40 for 2 miles. Turn east on 1430.D, drive for about 4 miles, then turn east onto FS970.S4. Park where rd ends then walk 600ft to the north.",########,cnhp_guest4,########,cnhp_guest4,-105.172,43.2693
144,f97435c6-6388-43cf-9757-a500a79ef4d3,########,20240612,GPS,GPS,Within 5m,WGS84,40.20776,-105.524,8400,feet,21001,21001,Arapaho and Roosevelt National Forests,Olive ridge campground,USFS,"West side of hwy 7, east facing, pondo forest, could start from CG but probably also from Lab Rd or 84W",########,cnhp_guest4,########,cnhp_guest4,-105.524,40.20776
145,a401b842-0e9e-4d97-a323-1fdf1c0fcb4b,########,20240709,GPS,GPS,Within 5m,WGS84,42.25833,-105.482,7643,feet,20609,20609,Medicine Bow-Routt National Forest,Laramie Peak Trail,USFS,"From Douglas, head S on CR 94 to CR5. Then head South about 20 miles. Turn east on 671.A. Park at Trailhead. About 1 mile.",########,ac15_CSUesri,########,ac15_CSUesri,-105.482,42.25833
146,f15ced72-b199-41e2-b695-fc1b048ac31a,########,20240711,GPS,GPS,Within 5m,WGS84,41.23576,-105.429,8599,feet,20605,20605,Medicine Bow-Routt National Forest,Summit Trail,USFS,"From Laramie, take hwy 80 S then turn SE onto happyJack road, take until it turns into FR 705. Take for approx. 700 ft then turn into summit trail parking lot. Site is on N side of parking lot.",########,ac15_CSUesri,########,ac15_CSUesri,-105.429,41.23576
147,21ffd6f5-8da4-42c5-a123-974cc0b1d18f,########,20240711,GPS,GPS,Within 5m,WGS84,41.17747,-105.322,7764,feet,20605,20605,Medicine Bow-Routt National Forest,Little Crow Creek,USFS,"From Laramie, take hwy 80 S then turn E onto FR 700 and continue for approx. 5 miles. Site is on NW side of road, at bend before FR 700.A.",########,ac15_CSUesri,########,ac15_CSUesri,-105.322,41.17747
148,4d1bd7e3-3543-4832-80b2-1562a965e0ee,########,20240711,GPS,GPS,Within 5m,WGS84,41.19973,-105.36,8213,feet,20605,20605,Medicine Bow-Routt National Forest,FR 707.A,USFS,From Laramie take hwy 80 S then turn E onto FR 707. Turn E again onto 707.A and travel approx. 1.7mi. Site is in open woodland/sagebrush community.,########,ac15_CSUesri,########,ac15_CSUesri,-105.36,41.19973
149,b5f20c4d-fe46-47b8-8e73-ec591a36b3ae,########,20240713,GPS,GPS,Within 5m,WGS84,41.21565,-105.414,8282,feet,20605,20605,Medicine Bow-Routt National Forest,FR 705.J,USFS,From Laramie take hwy 80 S and take the exit for Happy Jack rd. Turn SE to pass the Lincoln memorial and continue onto Blair Wallis Rd. Turn N onto FR 707.J and park right after intersection. Site is on W side of road.,########,ac15_CSUesri,########,ac15_CSUesri,-105.414,41.21565
150,3c9a8deb-6a24-46ae-8161-deedfdb4f72d,########,20240713,GPS,GPS,Within 5m,WGS84,41.20501,-105.39,8405,feet,20605,20605,Medicine Bow-Routt National Forest,Headquarters Road,USFS,"From Laramie, take I80 E until FR705. Turn left onto FR707 (Headquarters rd) and drive 1 mi N. Site is both sides of the road",########,ac15_CSUesri,########,ac15_CSUesri,-105.39,41.20501
151,a2ea4906-4a33-47a6-8c5a-e944fd0aae43,########,20240713,GPS,GPS,Within 5m,WGS84,41.20372,-105.39,8364,feet,20605,20605,Medicine Bow-Routt National Forest,707.A,USFS,"From Laramie take hwy 80 S and take exit for Happy Jack rd, go SE and continue onto BlairWallis rd/FR 707. Turn N onto Headquarters rd., then E onto Service rd 707AF/FR 707.A. park approx. 500ft down road. Site is on wet meadow N of road by trail.",########,ac15_CSUesri,########,ac15_CSUesri,-105.39,41.20372
152,f8bda9c9-cd98-4ff0-9221-3a3a5544b613,########,20240714,GPS,GPS,Within 5m,WGS84,41.22803,-105.409,8564,feet,20605,20605,Medicine Bow-Routt National Forest,Pole mountain trail.,USFS,From La4amie take hwy 80 S and take the exit for Happy Jack rd. Turn SE and continue onto FR 705/Blair Wallis rd. Turn N onto FR 705.J and continue until end. Collect on either side of trail up to point.,########,ac15_CSUesri,########,ac15_CSUesri,-105.409,41.22803
153,003c56ea-2de9-449f-9961-ab69aa98ffc8,########,20240714,GPS,GPS,Within 5m,WGS84,41.22718,-105.347,8138,feet,20605,20605,Medicine Bow-Routt National Forest,Salt Lake/FR 701.GA,USFS,From Laramie take I80S. Take exit 210 - Happy Jack Rd N. Turn north onto FR 701. The lake is approx. 4300 ft away from the coordinates along 701.G.,########,ac15_CSUesri,########,ac15_CSUesri,-105.347,41.22718
154,28e0f0bd-f5ce-4b16-836a-4ff26da19283,########,20240715,GPS,GPS,Within 10m,WGS84,41.16382,-105.364,8021,feet,20605,20605,Medicine Bow-Routt National Forest,E Turtle Rock trail,USFS,"From Laramie take hwy 80S to Vedauwoo exit go E. Turn N into Vedauwoo recreation area and keep E towards E Turtle Rock trailhead. Park in TH lot, then walk approx 2,000 ft NE. Site is on W riverbank hillside. ",########,ac15_CSUesri,########,ac15_CSUesri,-105.364,41.16382
155,fbf3fd32-0ce0-4c41-9eb8-2911e2b88ba7,########,20240709,GPS,GPS,Within 5m,WGS84,37.65955,-103.607,4578,feet,21206,21206,Pike and San Isabel National Forests,Whithers TH,USFS,"From La Junta, head south on CO highway 109. Then turn west onto David Canyon Rd. Go South on County Rd 25. Head east at intersection with Picket Wire Corral. In 4000 ft, at cattle guard, site 100 ft North of road.",########,cnhp_guest4,########,cnhp_guest4,-103.607,37.65955
156,dfec0a8c-6e66-4419-b73c-3d3be08b5c38,########,20240713,GPS,GPS,Within 5m,WGS84,37.31077,-105.139,10529,feet,21203,21203,Pike and San Isabel National Forests,Bear Lake,USFS,"From Bear Lake CG in tne San Isbel national forest, head S on FS422, then continue onto 436 for 600 ft. Site is S of Rd.",########,cnhp_guest4,########,cnhp_guest4,-105.139,37.31077
157,c8c75039-da77-4b5f-8e94-8430914e3599,########,20240713,GPS,GPS,Within 5m,WGS84,37.31509,-105.141,10505,feet,21203,21203,Pike and San Isabel National Forests,FS 422.A,USFS,"From La Veta, take CO highway 12 S to FS 422 W. Head NW on 422.A for 0.3 miles. Site is on slope E of road.",########,cnhp_guest4,########,cnhp_guest4,-105.141,37.31509
158,e4a1955b-2630-4356-a1ab-4f79d18e4b14,########,20240715,GPS,GPS,Within 5m,WGS84,37.88281,-105.207,7851,feet,21203,21203,Pike and San Isabel National Forests,Campground on 440.A,USFS,"From Gardener, head N on highway 634. Head E on FS 440.A. Site is camground S of road.",########,cnhp_guest4,########,cnhp_guest4,-105.207,37.88281
159,22e8b2cb-4905-495b-ba35-606bf115a93d,########,20240710,GPS,GPS,Within 5m,WGS84,37.66104,-103.569,4513,feet,21206,21206,Pike and San Isabel National Forests,Withers Canyon trailhead,USFS,"From LaJunta, head S on CO Hwy 109, then W on CR602. Head S on FS500 until you reach the Picketwire Corrals. Turn E and follow signs for Withers Canyon Trailhead. Park at TH and walk about 500 ft down the trail. SCSC localized to rocky canyon proper, BOCU foundon surrounding hillslopes.",########,cnhp_guest4,########,cnhp_guest4,-103.569,37.66104
160,dbe325fb-6917-4f7d-bb3b-c5c9f0fa5fba,########,20240710,GPS,GPS,Within 5m,WGS84,37.65202,-103.647,4503,feet,21206,21206,Pike and San Isabel National Forests,Minnie Canyon,USFS,"From La Junta, head south on CO highway 109 for 12 miles. Go west on county rd 602 for 8 miles. Go south on Rourke Rd for 7.5 miles. Head south on fr 2188 for 1800 ft, until road ends. Walk 1000 ft south to site.",########,cnhp_guest4,########,cnhp_guest4,-103.647,37.65202
161,d8762dbd-e74d-4130-92c9-629a51176b6c,########,20240710,GPS,GPS,Within 5m,WGS84,37.75375,-103.599,4521,feet,21206,21206,Pike and San Isabel National Forests,Vogel Canyon Rd,USFS,"From La Junta, head S on CO Hwy 109, then W on CR602. Head SE on FS500 for 6.6 miles. Site is 100 ft N of Rd.",########,cnhp_guest4,########,cnhp_guest4,-103.599,37.75375
162,e2a84d01-b3c4-40af-bd2a-ee93ef187ad0,########,20240710,GPS,GPS,Within 5m,WGS84,37.76436,-103.513,4250,feet,21206,21206,Pike and San Isabel National Forests,Vogel Canyon,USFS,"From LaJunta, head S on CO Hwy 109, then W on CR602. Head S on FR2200.C towards Vogel Canyon. Park at picnic area and walk S on Canyon Trail approximately 1300 ft.",########,cnhp_guest4,########,cnhp_guest4,-103.513,37.76436
163,a3dcbdf0-288c-4fca-a24b-b56ad518a535,########,20240710,GPS,GPS,Within 5m,WGS84,37.78607,-103.48,4291,feet,21206,21206,Pike and San Isabel National Forests,Fr2177,USFS,"From La Junta, head S on CO highway 109 for 13 miles. Head E on fr 2177 for 2000 ft. Site is SE of road.",########,cnhp_guest4,########,cnhp_guest4,-103.48,37.78607
164,eb3035d4-0fbc-42fd-a7ae-9ce898bc212d,########,20240711,GPS,GPS,Within 5m,WGS84,37.02547,-102.815,4270,feet,21206,21206,Pike and San Isabel National Forests,Sand Canyon,USFS,"From Springfield, take Highway 385 S. Take CR 1 W to CR 13 S. Go E on FS 2369 for 2 miles. Park at gate, site is NW facing slope, SE of road.",########,cnhp_guest4,########,cnhp_guest4,-102.815,37.02547
165,b7d1a55a-5b4f-4ce0-8e7e-fa65a86ee619,########,20240711,GPS,GPS,Within 5m,WGS84,37.03489,-102.803,4431,feet,21206,21206,Pike and San Isabel National Forests,FS 2369,USFS,"From Springfield, take Highway 385 S. Take CR 1 W to CR 13 S. Go E on FS 2369 for 4 miles. Site is west of road.",########,cnhp_guest4,########,cnhp_guest4,-102.803,37.03489
166,143399be-ea78-415a-9fdb-aeafd301b530,########,20240711,GPS,GPS,Within 5m,WGS84,37.00918,-102.746,4195,feet,21206,21206,Pike and San Isabel National Forests,Picture Canyon,USFS,"From Elder, head S on CR18. Head E on CRD, thenS on FS2361 (follwo signs for Picture Canyon). Site is abt 900 ft down the canyon trail. Watch for a rockyslope E of trail. This describes where thebluestem spp. are,but SPCR is densest very near the TH on the W side.",########,cnhp_guest4,########,cnhp_guest4,-102.746,37.00918
167,2db8acd0-23c9-4c6b-a417-670b8891da43,########,20240712,GPS,GPS,Within 5m,WGS84,37.13706,-101.826,3261,feet,21207,21207,Pike and San Isabel National Forests,Cimarron River Campground,USFS,"From Elkhart, head N on State Route 27. Turn E onto FS700.2 Turn N into the Ci arron rec area. Site is N of the. Pond near the end of the campground loop.",########,cnhp_guest4,########,cnhp_guest4,-101.826,37.13706
168,1ab2b610-bc6a-4aec-9077-d0f481d3b767,########,20240712,GPS,GPS,Within 5m,WGS84,37.14295,-101.823,3264,feet,21207,21207,Pike and San Isabel National Forests,FS 603,USFS,"From Elkhart, head N on State Route 27. Turn E onto FS700.2 Turn  N on Fs 603 and park about 2800 ft from beginning of road. Site is W of road.",########,cnhp_guest4,########,cnhp_guest4,-101.823,37.14295
169,bdd731bd-54ae-4a93-a6d1-35b59b1c40ec,########,20240712,GPS,GPS,Within 5m,WGS84,37.14958,-101.826,3340,feet,21207,21207,Pike and San Isabel National Forests,Cimarron River Campground,USFS,"From Elkhart, head N on State Route 27. Turn E onto FS700.2 Turn  N on Fs 603 and park about 1.1 miles from beginning of road. Site is W of road.",########,cnhp_guest4,########,cnhp_guest4,-101.826,37.14958
170,0802b624-1922-4854-afef-2c89179d6b42,########,20240712,GPS,GPS,Within 5m,WGS84,37.12668,-101.967,3532,feet,21207,21207,Pike and San Isabel National Forests,FS 654,USFS,"From Elkhart, go N on KS-27 for 9 miles. Go W on KS-51 for 4 miles.  Go S on Co Rd 5. In 1 mile go E on Fs 654 for .3 miles. Site is N of road.",########,cnhp_guest4,########,cnhp_guest4,-101.967,37.12668
171,7a127519-47ec-4e85-845a-83d41a860add,########,20240713,GPS,GPS,Within 5m,WGS84,37.32092,-105.073,9911,feet,21203,21203,Pike and San Isabel National Forests,CR 364 fork with Co highway 12,USFS,"From La Veda, take CO highway 12 S and park at fork with CR 364. Site is S of county road.",########,cnhp_guest4,########,cnhp_guest4,-105.073,37.32092
172,c04f8cab-30e4-464c-9406-646c3db157f7,########,20240714,GPS,GPS,Within 5m,WGS84,37.88432,-105.218,8058,feet,21203,21203,Pike and San Isabel National Forests,FS635,USFS,"From Gardner, head N on CR634. Head W on FS635 once you reach FS land. Site is N of Rd shortly after the gate for seasonal rd closure.",########,cnhp_guest4,########,cnhp_guest4,-105.218,37.88432
173,cf731062-c77c-4dcc-b595-0031492385ed,########,20240714,GPS,GPS,Within 5m,WGS84,37.88577,-105.253,8255,feet,21203,21203,Pike and San Isabel National Forests,CR 635,USFS,"From Gardener, take CR 634 N to CR 635. Head west for roughly 3 miles. Site is south of road on S facing slope.",########,cnhp_guest4,########,cnhp_guest4,-105.253,37.88577
174,86e667f7-ccf3-4183-9dd9-5de7394a74b4,########,20240714,GPS,GPS,Within 5m,WGS84,37.88116,-105.256,8201,feet,21203,21203,Pike and San Isabel National Forests,FS635,USFS,"From Gardener, take CR 634 N to FS 635. Head west for roughly 3.7 miles. Site is E of road.",########,cnhp_guest4,########,cnhp_guest4,-105.256,37.88116
175,c4e6cb67-4c44-4787-a877-8f69d9204f4f,########,20240714,GPS,GPS,Within 5m,WGS84,37.87693,-105.275,8272,feet,21203,21203,Pike and San Isabel National Forests,FS635,USFS,"From Gardener, take CR 634 N to FS 635. Continue on 635 for roughly 5.5 miles. Site is S of rd.",########,cnhp_guest4,########,cnhp_guest4,-105.275,37.87693
176,cdf58033-635d-4790-84b1-c88b3114ed6f,########,20240714,GPS,GPS,Within 5m,WGS84,37.86111,-105.282,8886,feet,21203,21203,Pike and San Isabel National Forests,634 Black Mountain Ridge,USFS,"From Gardner, head N on CR634. Head W on FS 635 until Black Mountain Ridge. Site is east of road.",########,cnhp_guest4,########,cnhp_guest4,-105.282,37.86111
177,cfa4ce28-aa0a-4c91-9bf5-b5373b94b4b5,########,20240714,GPS,GPS,Within 5m,WGS84,37.89833,-105.271,8865,feet,21203,21203,Pike and San Isabel National Forests,Reed Creek Gulch,USFS,"From Gardner, head N on CR634. Head W on FS635 once you reach FS land. Continue onto FS404, then 439. Site is N of rd, 0.1 miles after the start of FS439. ",########,cnhp_guest4,########,cnhp_guest4,-105.271,37.89833
178,77e116c8-4f19-4fc2-b2d0-f1e1e2e79cf4,########,20240715,GPS,GPS,Within 5m,WGS84,37.8987,-105.209,8275,feet,21203,21203,Pike and San Isabel National Forests,FS 403,USFS,"From Gardener, take highway 634 N. Take FS 440 to 403. Head west on 403 for .1 miles. Site is N of road.",########,cnhp_guest4,########,cnhp_guest4,-105.209,37.8987
179,0520f6f4-4ed9-4a64-969d-c678a8ae5431,########,20240715,GPS,GPS,Within 5m,WGS84,37.9558,-105.175,9828,feet,21203,21203,Pike and San Isabel National Forests,Horse Ranch,USFS,"From Horse Ranch, travel N on FS 402 for 0.4 miles. Site is to W of road.",########,cnhp_guest4,########,cnhp_guest4,-105.175,37.9558
180,9c2e3499-0eee-4075-bb20-7f6c23eb795d,########,20240710,GPS,GPS,Within 5m,WGS84,42.06169,-105.374,6914,feet,20609,20609,Medicine Bow-Routt National Forest,Palmer Canyon rd,USFS,From Wheatland take CR 204 which will turn into CR 721 and take approx. 8.5mi until small patch of FS land on N side of road. Park and sitee will be N of road.,########,ac15_CSUesri,########,ac15_CSUesri,-105.374,42.06169
181,c39a4f12-b5c5-44dd-ab72-0ab2b157f0fb,########,20240710,GPS,GPS,Within 5m,WGS84,42.22421,-105.35,7104,feet,20609,20609,Medicine Bow-Routt National Forest,Fletcher Park Road,USFS,"From Wheatland, head north on I-25 for about 14 miles. Then turn west on Fish Creek Rd. Drive for 14 miles then turn west (right) on Fletcher Park Rd. Stay on Fletcher Park Rd for 6 miles then site will be on the north side of rd. ",########,ac15_CSUesri,########,ac15_CSUesri,-105.35,42.22421
182,a04bea65-46d1-4ad7-9257-f663f8ec7530,########,20240714,GPS,GPS,Within 5m,WGS84,41.26915,-105.422,8475,feet,20605,20605,Medicine Bow-Routt National Forest,FR 712.A,USFS,"From Laramie take hwy80 S and take exit for Happy Jack rd. Turn N onto Happy Jack rd, then N again onto West Pilot Hill rd. Turn S onto FR 712.A and drive for approx. 4,500ft. Site is on either side of rd.",########,ac15_CSUesri,########,ac15_CSUesri,-105.422,41.26915
183,8d5cbbdd-173d-4dbe-ab24-4a2cc678f35b,########,20240714,GPS,GPS,Within 5m,WGS84,41.27082,-105.402,8295,feet,20605,20605,Medicine Bow-Routt National Forest,FR 714.A,USFS,"From Laramie take hwy80 S and take exit for Happy Jack rd. Turn N onto Happy Jack rd, then N again onto West Pilot Hill rd. Turn S onto FR 712.A. Turn north (left) on 712.A. Drive for about 4,000ft then turn north onto side road. Park at gate then walk 260ft north. The site will be on the west slope.",########,ac15_CSUesri,########,ac15_CSUesri,-105.402,41.27082
184,f4c6acd2-3c12-40fc-9f4a-68599e7eb570,########,20240714,GPS,GPS,Within 5m,WGS84,41.28211,-105.335,7761,feet,20605,20605,Medicine Bow-Routt National Forest,FR 713.A,USFS,"From Laramie take hwy80 S and take exit for Happy Jack rd. Turn N onto Happy Jack rd, then N again onto West Pilot Hill rd. Turn S onto FR 712.A. Drive to the fork then turn South on 712.A. Drive on 712 to the east for about 4.8 miles then turn north onto 713 for 5,000ft. Turn west onto 713.A. Drive to the end of rd then walk 1500ft to the west. ",########,ac15_CSUesri,########,ac15_CSUesri,-105.335,41.28211
185,1c15c43e-a5d6-4d48-9db3-59d680e9acad,########,20240715,GPS,GPS,Within 5m,WGS84,41.17205,-105.34,7978,feet,20605,20605,Medicine Bow-Routt National Forest,FR 700NB,USFS,From Laramie drive S on highway 80. Take exit for Happy Jack Rd NE. Turn SW to Vedauwoo. Turn N onto 700 N then NE onto 700NB. Park at campsite near end of Rd. Walk 325 ft over rock ridge.,########,ac15_CSUesri,########,ac15_CSUesri,-105.34,41.17205
186,bb42bb62-20ff-42ed-aed4-edf06485f168,########,20240724,GPS,GPS,Within 5m,WGS84,37.44031,-108.139,10117,feet,21305,21305,San Juan National Forest,FS566,USFS,"From Durango, head west on Hwy 155, then N on CR44. Continue onto FS566. Keep N at the loop. Travel abt 3 miles from the start of the loop. Site is S of road",########,cnhp_guest4,########,cnhp_guest4,-108.139,37.44031
187,519d5d7e-ed11-451e-adca-6d314bbaf0dd,########,20240724,GPS,GPS,Within 5m,WGS84,37.43819,-108.136,10163,feet,21305,21305,San Juan National Forest,FS566.G,USFS,"From Mancos, head E on highway 160. Go N on CR 44. Turn E on FS 566. Park at fork with FS 566.G, site is west of road.",########,cnhp_guest4,########,cnhp_guest4,-108.136,37.43819
188,3af3a827-7ea3-441d-830c-35e680cd0467,########,20240724,GPS,GPS,Within 5m,WGS84,37.65355,-107.802,8683,feet,21308,21308,San Juan National Forest,Lime Creek Campground,USFS,"From Durango, take highway 550 N to FS 591.A. Site is S of road at campground by trailhead.",########,cnhp_guest4,########,cnhp_guest4,-107.802,37.65355
189,e637614d-71c3-48ab-bea0-8dad2265ccb7,########,20240725,GPS,GPS,Within 5m,WGS84,37.45691,-106.55,11881,feet,20904,20904,Rio Grande National Forest,FS 330,USFS,"From Pagosa Springs, head N on hwy160. Then takeFS390,  380 and  330.Point is.75 miles pastDry Creek TH.",########,cnhp_guest4,########,cnhp_guest4,-106.55,37.45691
190,b6a648ac-e88c-4d50-a390-6e513ede3d4c,########,20240726,GPS,GPS,Within 5m,WGS84,37.53489,-106.511,9757,feet,20904,20904,Rio Grande National Forest,Pinos Creek,USFS,"From Del Norte, take CR14 S for 13.15 miles. Site is on both sides of road near regulation sign, just beforefork with FS331.",########,cnhp_guest4,########,cnhp_guest4,-106.511,37.53489
191,cf9a238a-4458-4930-99de-653660118a8c,########,20240727,GPS,GPS,Within 5m,WGS84,37.17138,-106.969,80105,feet,21306,21306,San Juan National Forest,Eightmile Mesa,USFS,"From Pagosa Springs, take 84 S to Eight Mile Mesa Rd. Go SW on road for 3.2 miles. Site is on plateau on both sides of the road.",########,cnhp_guest4,########,cnhp_guest4,-106.969,37.17138
192,d57abe12-d933-4726-8bcf-da723bf50247,########,20240728,GPS,GPS,Within 5m,WGS84,37.12983,-106.952,7369,feet,21306,21306,San Juan National Forest,FS653,USFS,"From Pagosa Springs, take highway 84 S to FS653. Take road W for about 1 mile. Site is N of road.",########,cnhp_guest4,########,cnhp_guest4,-106.952,37.12983
193,5e0115d1-c9e0-4d7e-b615-1ed1c304bd56,########,20240724,GPS,GPS,Within 5m,WGS84,37.41586,-108.196,9104,feet,21305,21305,San Juan National Forest,FS 566,USFS,"From Mancos, head W on highway 160. Turn N on 44. Turn E onto FS 566 and park in 0.85 miles at dispersed campsite. Site is east of road.",########,cnhp_guest4,########,cnhp_guest4,-108.196,37.41586
194,f068ef98-6163-42ab-adb9-ff7842582338,########,20240728,GPS,GPS,Within 5m,WGS84,37.52277,-107.225,8387,feet,21306,21306,San Juan National Forest,Williams Reservoir,USFS,"From Pagosa Springs, head NW on Cr600 and FS631.Head N on FS640 for about 2.4 miles. Site is W of road.",########,cnhp_guest4,########,cnhp_guest4,-107.225,37.52277
195,16c3a650-73c4-49c5-9de3-fe2f1f11ee28,########,20240728,GPS,GPS,Within 5m,WGS84,37.53506,-107.253,9087,feet,21306,21306,San Juan National Forest,Poison Park Trailhead,USFS,"From Williams Lake, take FS 640 N to FS 644. At Poison Park TH, park then walk 0.09. Miles to meadow. Site is W of path.",########,cnhp_guest4,########,cnhp_guest4,-107.253,37.53506
196,b84f8f56-e9c5-4966-86f1-18f93458d478,########,20240728,GPS,GPS,Within 5m,WGS84,37.53605,-107.256,9066,feet,21306,21306,San Juan National Forest,Poison Park Trail,USFS,"From Williams Lake, take FS 640 N to FS 644. At Poison Park TH, park then walk 0.3 and site is E of path.",########,cnhp_guest4,########,cnhp_guest4,-107.256,37.53605
197,0cc413e9-c1a6-46ff-ac1f-21dea59b1206,########,20240728,GPS,GPS,Within 5m,WGS84,37.54066,-107.205,8314,feet,21306,21306,San Juan National Forest,Williams Reservoir,USFS,"From Pagosa Springs, head NW on Cr600 and FS631.Head N on FS640 for about 6 miles. Site is E of road 1/3 mile before Palisades Horse Camp.",########,cnhp_guest4,########,cnhp_guest4,-107.205,37.54066
198,fd789fc5-b916-44bb-b468-b4da392b7e24,########,20240723,GPS,GPS,Within 5m,WGS84,40.76884,-104.605,5165,feet,21006,21006,Arapaho and Roosevelt National Forests,Cr108,USFS,"From Ault, take highway 14 east. Turn north on CR49. Stop at intersection with CR108. Site is approximately 1000ft west in depression.",########,ac15_CSUesri,########,ac15_CSUesri,-104.605,40.76884
199,f76a07f5-c5f3-4ef1-b8c3-dcc2ec8a74d6,########,20240724,GPS,GPS,Within 5m,WGS84,40.81356,-104.417,5135,feet,21006,21006,Arapaho and Roosevelt National Forests,FR 114,USFS,From Ault take hwy 14 E then turn N on CR 77. Turn W on CR 114 and continue onto FR 114. Take for approx. 1500ft. Plants on either side of road.,########,ac15_CSUesri,########,ac15_CSUesri,-104.417,40.81356
200,4b25b9e5-912e-427d-b137-7945e9506645,########,20240727,GPS,GPS,Within 5m,WGS84,40.80203,-104.461,5039,feet,21006,21006,Arapaho and Roosevelt National Forests,FR 321.4,USFS,"Frrom Ault, take Highway 14 east.  Turn north onto CR 77. Turn west onto CR 114. Take a brief left south onto CR 69 then an immediate right west onto FR 114. Turn south onto FR 241, then southwest onto FR 241.3. Continue for approximately 0.3 miles. Site is in wet meadow.",########,ac15_CSUesri,########,ac15_CSUesri,-104.461,40.80203
201,e4d7b474-9834-4200-91d0-c632760c1ca0,########,20240728,GPS,GPS,Within 10m,WGS84,40.68064,-105.35,5963,feet,21005,21005,Arapaho and Roosevelt National Forests,Young gulch trail,USFS,From La  Port take highway 287  N turn W onto  CO hwy 14. turn S at young gulch th. about 0.95 mi from th.,########,ac15_CSUesri,########,ac15_CSUesri,-105.35,40.68064
202,add305f4-4b0e-4482-8262-58a0bc5719f8,########,20240729,GPS,GPS,Within 5m,WGS84,40.70082,-105.315,5860,feet,21005,21005,Arapaho and Roosevelt National Forests,Hewlett Gulch Trail,USFS,"From Laporte, take HW 14 West for 6.6 miles. Park at Hewlett Gulch Trailhead. Walk about 5,000ft down trail. Site is on east slope. ",########,ac15_CSUesri,########,ac15_CSUesri,-105.315,40.70082
203,33685e28-dd10-41a3-9d73-966a3da4bf85,########,20240729,GPS,GPS,Within 10m,WGS84,40.70189,-105.315,5878,feet,21005,21005,Arapaho and Roosevelt National Forests,Hewlett Gulch,USFS,"From Laporte, take CO highway 287 north, turn west onto CO highway 14, travel approx. 7 miles to Hewlett Gulch trailhead. Travel approx. .75 miles, site on west hillslope.",########,ac15_CSUesri,########,ac15_CSUesri,-105.315,40.70189
204,709989c2-c737-4239-ad2b-691f27b4dc06,########,20240728,GPS,GPS,Within 5m,WGS84,39.41359,-105.754,10036,feet,21211,21211,Pike and San Isabel National Forests,Kenosha Pass east trailhead ,USFS,"Take 285 from Denver to Kenosha Pass and turn left onto the east KP entrance. From the trailhead parking lot to trail 1776, begin walking southbound on the Colorado Trail. ",########,cnhp_guest7,########,cnhp_guest7,-105.754,39.41359
205,6f91d996-8abb-44f6-a7c0-dddbef604f90,########,20240730,GPS,GPS,Within 5m,WGS84,39.38138,-105.104,7400,feet,21211,21211,Pike and San Isabel National Forests,Indian creek CG,USFS,"Note, seed collection could occur near the Indian Creek CG. 39.39440, -105.09243
From the TH at the equestration CG, P. virens could be collected. Also assume there are plenty of spots from nearby FRs between here and Rampart Range Rd. Just to the east.",########,cnhp_guest4,########,cnhp_guest4,-105.104,39.38138
206,8e6bc5bd-4dae-43f5-a53c-f2e7bca14e72,########,20240730,GPS,GPS,Within 5m,WGS84,39.04535,-105.082,8200,feet,21209,21209,Pike and San Isabel National Forests,FR 342,USFS,"From hwy 67, just out of Woodland Park, turn left onto FR342",########,cnhp_guest4,########,cnhp_guest4,-105.082,39.04535
207,6a74637b-301c-4ccc-97d6-7a44974857a8,########,20240715,GPS,GPS,Within 5m,WGS84,44.84696,-107.334,4423,feet,20206,20206,Bighorn National Forest,Tongue River Canyon trail,USFS,About 50m up trail from the first bridge.,########,cnhp_guest7,########,cnhp_guest7,-107.334,44.84696
208,9d822389-8b6f-4ba8-a4fe-75c292be3367,########,20240723,GPS,GPS,Within 5m,WGS84,44.09117,-107.297,5893,feet,20201,20201,Bighorn National Forest,Tensleep Canyon,USFS,On hillside trail near state historic marker close to the end of the forest,########,cnhp_guest7,########,cnhp_guest7,-107.297,44.09117
209,5e58c284-550e-44a3-b48b-c3fb6de40d4a,########,20240723,GPS,GPS,Within 5m,WGS84,44.09115,-107.297,5893,feet,20201,20201,Bighorn National Forest,Tensleep Canyon,USFS,On hillside trail near the state historic markee right before the end of the forest,########,cnhp_guest7,########,cnhp_guest7,-107.297,44.09115
210,67cfdd73-39c0-4a93-ac8b-fc4e88a0b13a,########,20240724,GPS,GPS,Within 5m,WGS84,44.57905,-107.675,5123,feet,20203,20203,Bighorn National Forest,Bench Trail Trailhead,USFS,Bench Trail Trailhead nearest to Shell. Directly behind the trail map signboard.,########,cnhp_guest7,########,cnhp_guest7,-107.675,44.57905
211,bca8707f-c8fd-4801-8878-49456fe7ab52,########,20240731,GPS,GPS,Within 5m,WGS84,44.55327,-106.947,5796,feet,20206,20206,Bighorn National Forest,Piney Creek Trail,USFS,"Along Piney Creek Trail, starting about 100m from end of trail, working back towards trailhead",########,cnhp_guest7,########,cnhp_guest7,-106.947,44.55327
212,30d4fad0-215c-4686-8cd7-738af685bba1,########,20240805,GPS,GPS,Within 5m,WGS84,44.58291,-107.585,6877,feet,20203,20203,Bighorn National Forest,"Shell Canyon, FS rd 263",USFS,In Shell Canyon on rd 263. Walked up the road 300m.,########,cnhp_guest7,########,cnhp_guest7,-107.585,44.58291
213,8cb2f421-2e14-4077-8a66-d2bfe3981005,########,20240807,GPS,GPS,Within 5m,WGS84,39.38048,-105.099,7474,feet,21211,21211,Pike and San Isabel National Forests,Indian Creek Campground,USFS,From,########,cnhp_guest4,########,cnhp_guest4,-105.099,39.38048
214,03cd740f-68b5-4d1e-8eb6-b7296f3d0043,########,20240807,GPS,GPS,Within 5m,WGS84,39.14914,-105.109,7506,feet,21209,21209,Pike and San Isabel National Forests,Illinois Gulch,USFS,"From West Creek, take 73 NE to Rainbow Falls Trout Creek. Head SE on FS 350. Site is 4,600 ft down road and on the campground to the east of road.",########,cnhp_guest4,########,cnhp_guest4,-105.109,39.14914
215,92ea9c10-ed3f-4dde-912f-2068e0782abc,########,20240811,GPS,GPS,Within 5m,WGS84,39.40503,-105.72,10373,feet,21211,21211,Pike and San Isabel National Forests,Twin Cone Peaks Rd,USFS,"From Jefferson, head N on state route 285. Turn east at Kenosha Pass towards East Kenosha Pass CG. Continue onto Twin Cone Peaks Rd (south). Pass through private property, stop 250 feet after the first switchback. Site is uphill from the rd.",########,cnhp_guest4,########,cnhp_guest4,-105.72,39.40503
216,e52ee769-7385-498d-97e8-4303f8a73b6f,########,20240812,GPS,GPS,Within 5m,WGS84,39.37335,-105.741,10131,feet,21210,21210,Pike and San Isabel National Forests,Wilson Gulch,USFS,"From Jefferson, take 285 NE to 56 W. Turn S onto 39.2C and drive for 0.75 miles. Park at summit, site includes all sides of hill.",########,cnhp_guest4,########,cnhp_guest4,-105.741,39.37335
217,674b0614-7e08-4f09-83e0-b0f1c117dd41,########,20240812,GPS,GPS,Within 5m,WGS84,39.34846,-105.638,9743,feet,21210,21210,Pike and San Isabel National Forests,Long Gulch,USFS,"From Jefferson, take 285 N to 56 E. Head east onroad for 8 miles. Site is N of road.",########,cnhp_guest4,########,cnhp_guest4,-105.638,39.34846
218,c3bc9f27-818e-4272-b6d1-cd2dbb1cf519,########,20240806,GPS,GPS,Within 5m,WGS84,39.38029,-105.101,7480,feet,21211,21211,Pike and San Isabel National Forests,Indian Creek CG,USFS,"From Indian Creek CG parking lot near highwyay, head up trail 800 for about 800 feet. Site is mostly NE of trail.",########,cnhp_guest4,########,cnhp_guest4,-105.101,39.38029
219,743eaaa6-5b20-4443-af9d-727b3e915284,########,20240807,GPS,GPS,Within 5m,WGS84,39.40085,-105.167,6078,feet,21211,21211,Pike and San Isabel National Forests,Colorado Trail TH,USFS,"From Deckers, head N on 97 until you reach Colorado Trail TH. Site starts 50 feet from road.",########,cnhp_guest4,########,cnhp_guest4,-105.167,39.40085
220,3344d5de-5552-4c9b-8a63-ad750cab03f5,########,20240808,GPS,GPS,Within 5m,WGS84,39.09091,-105.091,7786,feet,21209,21209,Pike and San Isabel National Forests,FR345,USFS,"From Woodland Park, take 67 N to 79 E. TurnS on FR 345 and park at meadow on E of road. Site is ungrazed meadow.",########,cnhp_guest4,########,cnhp_guest4,-105.091,39.09091
221,2b8af278-25cb-412b-a0ae-a7f147984e82,########,20240808,GPS,GPS,Within 5m,WGS84,39.08778,-105.087,6830,feet,21209,21209,Pike and San Isabel National Forests,FR345,USFS,"From Woodland Park, take 67 N to 79 E. TurnS on FR 345 and drive for approximately 1 mile. Site is E of road on hillslope.",########,cnhp_guest4,########,cnhp_guest4,-105.087,39.08778
222,e31c07bc-732e-4b3a-9fc7-bfc236ce1596,########,20240808,GPS,GPS,Within 5m,WGS84,39.04636,-105.093,8045,feet,21209,21209,Pike and San Isabel National Forests,Cathedral Ridge,USFS,"From Woodland Park, head North on CO HWY 67. Then head west on FS 342 then continue to FS 342.A. Stop 500ft before Cathedral Park.",########,cnhp_guest4,########,cnhp_guest4,-105.093,39.04636
223,24aa4cdd-cd3e-4476-9a08-97fdbdfe0862,########,20240808,GPS,GPS,Within 5m,WGS84,39.07108,-105.145,8564,feet,21209,21209,Pike and San Isabel National Forests,Manchester Creek,USFS,"From Woodland Park, take highway 67 N to 78 W. Turn SW onto FS 357. Stop at junction with 358 and 357.H. Site is S and between two roads.",########,cnhp_guest4,########,cnhp_guest4,-105.145,39.07108
224,9d21476a-97e2-4075-a601-94dd69669dae,########,20240808,GPS,GPS,Within 5m,WGS84,39.15111,-105.104,7632,feet,21209,21209,Pike and San Isabel National Forests,350.A,USFS,"From Woodland Park, take 67 N to FS350. Turn NE onto FS350.A. site is N of road at drainage clearing.",########,cnhp_guest4,########,cnhp_guest4,-105.104,39.15111
225,009c15be-9f2f-455c-8ee8-9648c1f96688,########,20240809,GPS,GPS,Within 5m,WGS84,39.04706,-105.074,8100,feet,21209,21209,Pike and San Isabel National Forests,Red Rocks CG,USFS,"From Woodland Park, take 67 N to FS 335. Drive E 0.5 miles and park. Walk 225 feet west to ownership boundary to reach site.",########,cnhp_guest4,########,cnhp_guest4,-105.074,39.04706
226,1fbae3e3-9adb-4032-8bb5-8932282b8f8c,########,20240810,GPS,GPS,Within 5m,WGS84,39.03705,-106.026,9547,feet,21210,21210,Pike and San Isabel National Forests,Buffalo Springs CG,USFS,"From Antero Junction, head north on State Route 285. Turn West o to FS431. Travel 3 miles. Site is meadow S of rd.",########,cnhp_guest4,########,cnhp_guest4,-106.026,39.03705
227,42f7d21d-c0ba-41da-8cc9-2041852c890f,########,20240810,GPS,GPS,Within 5m,WGS84,39.02677,-106.099,10572,feet,21210,21210,Pike and San Isabel National Forests,Willow Creek,USFS,"From Fairplay, take highway 285 S to FS 431. Travel W on road for about 7.25 miles to open meadow with dispersed campsites, after intersection with FS 431.D. Site is southwest of the road.",########,cnhp_guest4,########,cnhp_guest4,-106.099,39.02677
228,f2c2ecbf-8591-4db9-a668-0f7d135e7c46,########,20240810,GPS,GPS,Within 5m,WGS84,39.02702,-106.082,10366,feet,21210,21210,Pike and San Isabel National Forests,FS 431,USFS,"From Fairplay, take highway 285 S to FS 341. Head west on FS 431 for 6 miles. Site is on N of road, across from dispersed campsite.",########,cnhp_guest4,########,cnhp_guest4,-106.082,39.02702
229,38de5e24-f3ec-4b34-8835-7dd665681884,########,20240810,GPS,GPS,Within 5m,WGS84,38.94601,-106.047,9574,feet,21211,21211,Pike and San Isabel National Forests,Salt Creek,USFS,"From Fairplay, take highway 285 S to Salt Creek Rd. Travel 5.6 miles W to fork with FS 461.A. Site is N of both roads.",########,cnhp_guest4,########,cnhp_guest4,-106.047,38.94601
230,e55951fb-5988-4990-8068-5233804a5065,########,20240811,GPS,GPS,Within 5m,WGS84,38.90612,-105.976,9472,feet,21202,21202,Pike and San Isabel National Forests,Trout Creek Pass,USFS,"From Antero Junction, take highway 285 S to FS 329. Head southwest on road for .45 miles. Site is W of road.",########,cnhp_guest4,########,cnhp_guest4,-105.976,38.90612
231,6abb74ea-0425-48f0-b9db-c68f86298873,########,20240813,GPS,GPS,Within 5m,WGS84,39.84013,-105.509,9081,feet,21007,21007,Arapaho and Roosevelt National Forests,Pickle Gulch ,USFS,"From CO46/Golden Gate Canyon Rd., turn left onto CO119, passing the Cold Springs campground. 0.9 miles past the campground, find a pulloff parking area. Look for a no shooting sign. Follow the small trail up the embankment and it opens up to pine forest on one side and aspen groves and meadows on the other. ",########,cnhp_guest7,########,cnhp_guest7,-105.509,39.84013
232,b89b1259-7e56-45e4-aa41-87eb162f9506,########,20240725,GPS,GPS,Within 5m,WGS84,40.68605,-104.363,4869,feet,21006,21006,Arapaho and Roosevelt National Forests,Seven Cross Windmill,USFS,"From Briggsdale, take highway 14 west then 77 N then 96 W. Turn north onto the road to Seven Cross Windmill. Park by windmill. Starts 50ft from rd and continues along depression.",########,cnhp_guest4,########,cnhp_guest4,-104.363,40.68605
233,009e43ef-5810-4722-9cad-523a94e1d995,########,20240726,GPS,GPS,Within 5m,WGS84,40.80723,-104.012,5406,feet,21006,21006,Arapaho and Roosevelt National Forests,Pawnee Buttes ,USFS,"From Keota, travel north on highway 105. Head west on highway 104. Then head north on highway 111. Then turn NE onto FS 685. Stop at dispersed campsite about 1800ft down rd. ",########,cnhp_guest4,########,cnhp_guest4,-104.012,40.80723
234,064a5abd-2c0f-444a-9907-be63be5faa00,########,20240726,GPS,GPS,Within 5m,WGS84,40.71192,-104.428,4983,feet,21006,21006,Arapaho and Roosevelt National Forests,FR 100,USFS,"From Ault take hwy 14 E to FR 77. Turn N and then take a left/W turn onto FR 96. Turn N onto FR 69, then W on FR 100 (admin road only). Site is approx. 5,000 ft down road.",########,cnhp_guest4,########,cnhp_guest4,-104.428,40.71192
235,9b1ce680-9319-443f-b296-76b8ebe7b6e0,########,20240729,GPS,GPS,Within 10m,WGS84,40.70212,-105.314,5860,feet,21005,21005,Arapaho and Roosevelt National Forests,Hewlett gultch trail,USFS,From Laporte take hwy 287 N to hwy 14 W. tracel approx. 7.5 mi to Hewlett gulch TH. hike approx .8 mi to site. On W slope.,########,cnhp_guest4,########,cnhp_guest4,-105.314,40.70212
236,697cbd44-5689-4e7c-9ca9-a86594630ba0,########,20240807,GPS,GPS,Within 5m,WGS84,39.37956,-105.102,7500,feet,21211,21211,Pike and San Isabel National Forests,Indian Creek CG,USFS,"From Sedalia, travel to Indian Creek CG. Collection potential all around the area. Camp at CG or dispersed camping at Rampart Range Rd. ",########,cnhp_guest4,########,cnhp_guest4,-105.102,39.37956
237,c50624d8-b8d2-4580-bdfb-6b7c82d6d3cb,########,20240808,GPS,GPS,Within 5m,WGS84,39.04571,-105.083,7400,feet,21209,21209,Pike and San Isabel National Forests,FR 342,USFS,"Off of 67 north out of Woodland park, turn west onto FR342, parking is immediately on the left. Collection site is on north side of road.",########,cnhp_guest4,########,cnhp_guest4,-105.083,39.04571
238,7a45f50b-2562-4cb7-8bd0-e76bd782a26d,########,20240808,GPS,GPS,Within 5m,WGS84,39.05686,-105.089,8000,feet,21209,21209,Pike and San Isabel National Forests,FR 339,USFS,"From Woodland Park, go north on 67, turn west on FR339. ",########,cnhp_guest4,########,cnhp_guest4,-105.089,39.05686
239,ff9c9d6b-e399-4067-a549-47d41163c644,########,20240815,GPS,GPS,Within 5m,WGS84,39.06827,-105.412,8000,feet,21209,21209,Pike and San Isabel National Forests,FR 267,USFS,"North on CR 77 from 24 W Lake George, turn west at FR 267",########,cnhp_guest4,########,cnhp_guest4,-105.412,39.06827
240,5ab5b08c-ba12-453d-a59e-6285f661cb85,########,20240815,GPS,GPS,Within 5m,WGS84,39.13344,-105.464,8500,feet,21209,21209,Pike and San Isabel National Forests,FR206,USFS,"From CR77/tarryall Rd, navigate to spruce grove CG. FR206 is just south of there on the west side of CR77. ",########,cnhp_guest4,########,cnhp_guest4,-105.464,39.13344
241,395274c8-25f8-4c22-83a3-c77514b474f6,########,20240815,GPS,GPS,Within 5m,WGS84,39.32776,-106.13,12000,feet,21210,21210,Pike and San Isabel National Forests,Kite lake,USFS,Alma,########,cnhp_guest4,########,cnhp_guest4,-106.13,39.32776
242,015785b6-4af7-45d8-9c8c-ba0137f5f63f,########,20240815,GPS,GPS,Within 5m,WGS84,39.14644,-105.482,8500,feet,21209,21209,Pike and San Isabel National Forests,FR214,USFS,"From CR77/Tarryall Rd, FR 214 is on west side, across from S Tarryall Peak, north of spruce grove CG",########,cnhp_guest4,########,cnhp_guest4,-105.482,39.14644
243,0d7658e1-c6af-4b92-b154-2cae4a3a51e6,########,20240629,GPS,GPS,Within 5m,WGS84,43.65727,-103.016,2968,feet,20705,20705,Nebraska National Forest,60,USFS,"Rolling prairie hills south and southeast of Fairburn Campground, across E. French Creek road. Mesic hill foots and valleys, no-aspect to north-facing, 0-20° slope, sand to sandy-loam soil.",########,cnhp_guest7,########,cnhp_guest7,-103.016,43.65727
244,41e14eea-ad5d-4f89-b57d-236b3e9411dd,########,20240820,GPS,GPS,Within 5m,WGS84,40.73161,-105.601,8499,feet,21005,21005,Arapaho and Roosevelt National Forests,Swamp Creek,USFS,From Red Feather Lakes take 74 e west. Turn S onto CR69 and drive until FR171. Turn W onto 171 and continue for about 600ft. Park on south side of road ans site is north of road about 450ft.,########,cnhp_guest4,########,cnhp_guest4,-105.601,40.73161
245,b0f59037-ce54-4b18-82b4-3e5c78c9b374,########,20240821,GPS,GPS,Within 5m,WGS84,40.74257,-105.647,9212,feet,21005,21005,Arapaho and Roosevelt National Forests,South Fork Elkhorn Creek,USFS,"From Gooddell Corner, take FS171.A west to 171.B. Turn N onto 171.G. site is N of road after 0.16 miles.",########,cnhp_guest4,########,cnhp_guest4,-105.647,40.74257
246,9a62d2c9-b617-42ac-b635-a7ede2c82d6d,########,20240821,GPS,GPS,Within 5m,WGS84,40.76237,-105.645,9082,feet,21005,21005,Arapaho and Roosevelt National Forests,Bellaire Lake Campground,USFS,"From Goodell Corner, take CR 69 north to FS517. Travel W for about 2 miles. Site is south of road.",########,cnhp_guest4,########,cnhp_guest4,-105.645,40.76237
247,86ae2922-1b2e-49e6-b4af-05615a799707,########,20240821,GPS,GPS,Within 5m,WGS84,40.76234,-105.652,9255,feet,21005,21005,Arapaho and Roosevelt National Forests,Bellaire Lake Campground,USFS,"From Bellaire Lake Campground, head S on CR69, then W on FS517. Cntinue for about 2.5 miles. Site is to the north of road 50 ft.",########,cnhp_guest4,########,cnhp_guest4,-105.652,40.76234
248,c46fe1ce-8baa-41c9-b572-749714065630,########,20240821,GPS,GPS,Within 5m,WGS84,40.75979,-105.666,9471,feet,21005,21005,Arapaho and Roosevelt National Forests,Elkhorn Creek,USFS,"From Gooddell Corner, take CR 69 to FS 517. Travel west for 3.25 miles. Site is on either side of the road.",########,cnhp_guest4,########,cnhp_guest4,-105.666,40.75979
249,02b7b25c-8786-41c5-a298-e370a55951a6,########,20240821,GPS,GPS,Within 5m,WGS84,40.80982,-105.676,9470,feet,21005,21005,Arapaho and Roosevelt National Forests,Deadman Road,USFS,"From Red Feather Lakes, take Deadman Rd west. Park at fork with FS300. Site is SW of fork.",########,cnhp_guest4,########,cnhp_guest4,-105.676,40.80982
250,685dc1d1-a395-4172-8dea-f12e27fba1a1,########,20240822,GPS,GPS,Within 5m,WGS84,40.637,-105.525,8121,feet,21005,21005,Arapaho and Roosevelt National Forests,Quigley Mountain,USFS,"From Pennock Pass, take CR44H W and turn N on CR 63E. At Jacks Gulch CG, head W on FS 152 and park on other side of cattle guard. Site is 200 ft south of road.",########,cnhp_guest4,########,cnhp_guest4,-105.525,40.637
251,ec1e5f85-0501-4885-a1ce-4aea502113ee,########,20240825,GPS,GPS,Within 5m,WGS84,40.31352,-106.068,8834,feet,21008,21008,Arapaho and Roosevelt National Forests,Gilsonite guard station,USFS,"From Granb6, head NW on co hwy 125. Look for 2 track road to the west less than a mile after the intersection of 125 and CR4. Site is in the open meadow above th wetland, south of the 2 track.",########,cnhp_guest4,########,cnhp_guest4,-106.068,40.31352
252,304b56eb-33b0-4d7d-8f8b-221a18b6fcf8,########,20240825,GPS,GPS,Within 5m,WGS84,40.28134,-106.085,8658,feet,21008,21008,Arapaho and Roosevelt National Forests,Trail Creek CG,USFS,"Frkm Grqnby head N on hwy 125. Turn W onto FS106. Park at end of road, site js 100 ft south",########,cnhp_guest4,########,cnhp_guest4,-106.085,40.28134
253,b8fd301f-0aad-48c0-8f18-5b8901b80bd5,########,20240825,GPS,GPS,Within 5m,WGS84,40.27891,-106.086,8658,feet,21008,21008,Arapaho and Roosevelt National Forests,Trail Creek CG,USFS,"From Granby, go NW on CO hwy 125 for 13 miles. Site on west side of road, 1000 ft before picnic campground.",########,cnhp_guest4,########,cnhp_guest4,-106.086,40.27891
